[{"id":"sc:2204","lat":39.008355,"lon":-77.501839,"network":"Tesla","power_kw":250,"stall_count":8,"open_date":"2020-02-20","close_date":null,"date_source":"authoritative_install","status":"OPEN","open_to_others":true,"stall_versions":{"v3":8},"plug_types":{"tpc":0,"nacs":8},"country":"USA","name":"Ashburn, VA"},{"id":"sc:4148","lat":41.828441,"lon":-71.42697,"network":"Tesla","power_kw":250,"stall_count":8,"open_date":"2022-12-21","close_date":null,"date_source":"authoritative_install","status":"OPEN","open_to_others":true,"stall_versions":{"v3":8},"plug_types":{"tpc":0,"nacs":8},"country":"USA","name":"Providence, RI"},{"id":"sc:6697","lat":42.038787,"lon":-71.24038,"network":"Tesla","power_kw":250,"stall_count":12,"open_date":"2024-04-09","close_date":null,"date_source":"authoritative_install","status":"OPEN","open_to_others":true,"stall_versions":{"v3":12,"accessible":1},"plug_types":{"nacs":12,"ccs1":12,"multi":12},"country":"USA","name":"Foxborough, MA"},{"id":"sc:2597","lat":41.39169,"lon":-73.595175,"network":"Tesla","power_kw":250,"stall_count":8,"open_date":"2022-11-23","close_date":null,"date_source":"authoritative_install","status":"OPEN","open_to_others":true,"stall_versions":{"v3":8},"plug_types":{"nacs":8,"ccs1":8,"multi":8},"country":"USA","name":"Brewster, NY"},{"id":"sc:9380","lat":44.694916,"lon":-79.399516,"network":"Tesla","power_kw":325,"stall_count":8,"open_date":"2025-07-25","close_date":null,"date_source":"authoritative_install","status":"OPEN","open_to_others":true,"stall_versions":{"v4":8},"plug_types":{"nacs":8},"country":"Canada","name":"Severn, ON - Hwy 11"},{"id":"sc:3719","lat":37.745769,"lon":-77.472412,"network":"Tesla","power_kw":250,"stall_count":8,"open_date":"2022-04-22","close_date":null,"date_source":"authoritative_install","status":"OPEN","open_to_others":true,"stall_versions":{"v3":8},"plug_types":{"tpc":0,"nacs":8},"country":"USA","name":"Ashland, VA"},{"id":"sc:10614","lat":30.938772,"lon":121.738447,"network":"Tesla","power_kw":250,"stall_count":3,"open_date":"2025-11-05","close_date":null,"date_source":"authoritative_install","status":"OPEN","open_to_others":true,"stall_versions":{"v4":3},"plug_types":{"gbt":3},"country":"China","name":"Shanghai, China - Fengfa Baolong Plaza"},{"id":"sc:3506","lat":41.389482,"lon":2.133672,"network":"Tesla","power_kw":125,"stall_count":4,"open_date":"2021-07-01","close_date":null,"date_source":"authoritative_install","status":"OPEN","open_to_others":true,"stall_versions":{"v2":4,"accessible":0,"trailerFriendly":0},"plug_types":{"ccs2":4,"type2":4,"multi":4},"country":"Spain","name":"Barcelona, Spain - L'Illa Diagonal"},{"id":"sc:471","lat":48.343446,"lon":8.663834,"network":"Tesla","power_kw":250,"stall_count":12,"open_date":"2014-12-19","close_date":null,"date_source":"authoritative_install","status":"OPEN","open_to_others":true,"stall_versions":{"v3":6,"v4":6,"accessible":0,"trailerFriendly":0},"plug_types":{"ccs2":12},"country":"Germany","name":"Sulz-V\u00f6hringen, Germany"},{"id":"sc:8804","lat":-30.27393,"lon":153.13256,"network":"Tesla","power_kw":300,"stall_count":16,"open_date":"2025-12-17","close_date":null,"date_source":"authoritative_install","status":"OPEN","open_to_others":true,"stall_versions":{"v4":16,"trailerFriendly":1},"plug_types":{"ccs2":16},"country":"Australia","name":"Coffs Harbour, NSW - The Big Banana"},{"id":"sc:6696","lat":55.863209,"lon":-3.707971,"network":"Tesla","power_kw":250,"stall_count":4,"open_date":"2023-11-22","close_date":null,"date_source":"authoritative_install","status":"OPEN","open_to_others":true,"stall_versions":{"v4":4,"accessible":1,"trailerFriendly":0},"plug_types":{"ccs2":4},"country":"United Kingdom","name":"Heartlands, UK"},{"id":"sc:7309","lat":-33.83746,"lon":117.15779,"network":"Tesla","power_kw":250,"stall_count":4,"open_date":"2024-03-28","close_date":null,"date_source":"authoritative_install","status":"OPEN","open_to_others":true,"stall_versions":{"v3":4,"trailerFriendly":4},"plug_types":{"ccs2":4},"country":"Australia","name":"Kojonup, WA, Australia"},{"id":"sc:6468","lat":55.7198,"lon":-3.9536,"network":"Tesla","power_kw":250,"stall_count":16,"open_date":"2024-03-29","close_date":null,"date_source":"authoritative_install","status":"OPEN","open_to_others":true,"stall_versions":{"v4":16,"accessible":0,"trailerFriendly":0},"plug_types":{"ccs2":16},"country":"United Kingdom","name":"Larkhall, UK"},{"id":"sc:1253","lat":-33.319613,"lon":115.717729,"network":"Tesla","power_kw":125,"stall_count":6,"open_date":"2017-10-05","close_date":null,"date_source":"authoritative_install","status":"OPEN","open_to_others":false,"stall_versions":{"v2":6},"plug_types":{"ccs2":6,"type2":6,"multi":6},"country":"Australia","name":"Eaton, WA, Australia"},{"id":"sc:3967","lat":37.211116,"lon":-80.400493,"network":"Tesla","power_kw":250,"stall_count":8,"open_date":"2024-02-29","close_date":null,"date_source":"authoritative_install","status":"OPEN","open_to_others":false,"stall_versions":{"v3":8,"accessible":1},"plug_types":{"tpc":8,"nacs":0},"country":"USA","name":"Blacksburg, VA"},{"id":"sc:3447","lat":52.9627348,"lon":-2.1965062,"network":"Tesla","power_kw":250,"stall_count":18,"open_date":"2021-06-30","close_date":null,"date_source":"authoritative_install","status":"OPEN","open_to_others":true,"stall_versions":{"v3":8,"v4":10},"plug_types":{"ccs2":18},"country":"United Kingdom","name":"Trentham, UK"},{"id":"sc:7563","lat":42.401694,"lon":2.880528,"network":"Tesla","power_kw":250,"stall_count":20,"open_date":"2024-03-12","close_date":null,"date_source":"authoritative_install","status":"OPEN","open_to_others":true,"stall_versions":{"v4":20,"accessible":1},"plug_types":{"ccs2":20},"country":"Spain","name":"La Jonquera, Spain"},{"id":"sc:2370","lat":25.693198,"lon":-80.304898,"network":"Tesla","power_kw":72,"stall_count":12,"open_date":"2020-06-11","close_date":null,"date_source":"authoritative_install","status":"OPEN","open_to_others":false,"stall_versions":{"urban":12},"plug_types":{"tpc":12},"country":"USA","name":"Miami, FL - South Dixie Hwy"},{"id":"sc:4885","lat":36.662369,"lon":117.071616,"network":"Tesla","power_kw":250,"stall_count":7,"open_date":"2022-09-22","close_date":null,"date_source":"authoritative_install","status":"OPEN","open_to_others":false,"stall_versions":{"v2":4,"v3":3},"plug_types":{"gbt":7},"country":"China","name":"Jinan, China - Herui Plaza"},{"id":"sc:948","lat":39.914813,"lon":116.486675,"network":"Tesla","power_kw":250,"stall_count":26,"open_date":"2016-10-09","close_date":null,"date_source":"authoritative_install","status":"OPEN","open_to_others":false,"stall_versions":{"v2":20,"v3":6},"plug_types":{"gbt":26},"country":"China","name":"Beijing, China - Central Place Experience Store"},{"id":"sc:7384","lat":38.241495,"lon":-81.559849,"network":"Tesla","power_kw":250,"stall_count":8,"open_date":"2024-03-14","close_date":null,"date_source":"authoritative_install","status":"OPEN","open_to_others":true,"stall_versions":{"v3":8,"accessible":1},"plug_types":{"tpc":0,"nacs":8},"country":"USA","name":"Marmet, WV"},{"id":"sc:7129","lat":33.825097,"lon":-116.459565,"network":"Tesla","power_kw":250,"stall_count":8,"open_date":"2024-01-29","close_date":null,"date_source":"authoritative_install","status":"OPEN","open_to_others":true,"stall_versions":{"v3":8,"accessible":1},"plug_types":{"tpc":0,"nacs":8},"country":"USA","name":"Cathedral City, CA"},{"id":"sc:6037","lat":41.568161,"lon":-87.508042,"network":"Tesla","power_kw":250,"stall_count":12,"open_date":"2024-03-18","close_date":null,"date_source":"authoritative_install","status":"OPEN","open_to_others":true,"stall_versions":{"v3":12,"accessible":1},"plug_types":{"tpc":0,"nacs":12},"country":"USA","name":"Munster, IN"},{"id":"sc:112","lat":32.760837,"lon":-115.532486,"network":"Tesla","power_kw":325,"stall_count":24,"open_date":"2014-12-28","close_date":null,"date_source":"authoritative_install","status":"OPEN","open_to_others":false,"stall_versions":{"v2":8,"v4":16,"trailerFriendly":16},"plug_types":{"tpc":24},"country":"USA","name":"El Centro, CA"},{"id":"sc:5457","lat":36.86455,"lon":-81.433527,"network":"Tesla","power_kw":250,"stall_count":8,"open_date":"2022-12-22","close_date":null,"date_source":"authoritative_install","status":"OPEN","open_to_others":true,"stall_versions":{"v3":8},"plug_types":{"tpc":0,"nacs":8},"country":"USA","name":"Atkins, VA"},{"id":"sc:9110","lat":37.657166,"lon":-121.897969,"network":"Tesla","power_kw":325,"stall_count":8,"open_date":"2025-11-03","close_date":null,"date_source":"authoritative_install","status":"OPEN","open_to_others":true,"stall_versions":{"v4":8,"accessible":1},"plug_types":{"nacs":8},"country":"USA","name":"Pleasanton, CA - 6770 Bernal Ave"},{"id":"sc:2358","lat":38.9137222,"lon":-77.4869722,"network":"Tesla","power_kw":250,"stall_count":8,"open_date":"2020-07-15","close_date":null,"date_source":"authoritative_install","status":"OPEN","open_to_others":true,"stall_versions":{"v3":8},"plug_types":{"tpc":0,"nacs":8},"country":"USA","name":"Chantilly, VA"},{"id":"sc:456","lat":42.838443,"lon":-72.565798,"network":"Tesla","power_kw":250,"stall_count":16,"open_date":"2015-01-16","close_date":null,"date_source":"authoritative_install","status":"OPEN","open_to_others":false,"stall_versions":{"v2":8,"v3":8},"plug_types":{"tpc":16,"nacs":0},"country":"USA","name":"Brattleboro, VT"},{"id":"sc:5105","lat":31.842569,"lon":119.975541,"network":"Tesla","power_kw":250,"stall_count":6,"open_date":"2022-09-22","close_date":null,"date_source":"authoritative_install","status":"OPEN","open_to_others":false,"stall_versions":{"v3":6},"plug_types":{"gbt":6},"country":"China","name":"Changzhou, China - Global Port"},{"id":"sc:214","lat":51.370219,"lon":9.633905,"network":"Tesla","power_kw":250,"stall_count":16,"open_date":"2014-06-14","close_date":null,"date_source":"authoritative_install","status":"OPEN","open_to_others":true,"stall_versions":{"v4":16,"accessible":0,"trailerFriendly":0},"plug_types":{"ccs2":16},"country":"Germany","name":"Lutterberg, Germany"},{"id":"sc:6205","lat":60.214613,"lon":24.652946,"network":"Tesla","power_kw":250,"stall_count":16,"open_date":"2023-06-09","close_date":null,"date_source":"authoritative_install","status":"OPEN","open_to_others":true,"stall_versions":{"v3":16,"accessible":0,"trailerFriendly":0},"plug_types":{"ccs2":16},"country":"Finland","name":"Espoo, Finland"},{"id":"sc:1053","lat":40.912784,"lon":-73.78146,"network":"Tesla","power_kw":72,"stall_count":8,"open_date":"2018-06-04","close_date":null,"date_source":"authoritative_install","status":"OPEN","open_to_others":false,"stall_versions":{"urban":8},"plug_types":{"tpc":8},"country":"USA","name":"New Rochelle, NY"},{"id":"sc:10624","lat":31.825346,"lon":120.012941,"network":"Tesla","power_kw":250,"stall_count":3,"open_date":"2025-11-21","close_date":null,"date_source":"authoritative_install","status":"OPEN","open_to_others":true,"stall_versions":{"v4":3},"plug_types":{"gbt":3},"country":"China","name":"Changzhou, China - Dino Water Town"},{"id":"sc:10625","lat":34.431321,"lon":108.748193,"network":"Tesla","power_kw":250,"stall_count":3,"open_date":"2025-11-13","close_date":null,"date_source":"authoritative_install","status":"OPEN","open_to_others":false,"stall_versions":{"v3":3},"plug_types":{"gbt":3},"country":"China","name":"Xianyang, China - Bianfang Primary School"},{"id":"sc:639","lat":51.441774,"lon":6.611922,"network":"Tesla","power_kw":250,"stall_count":12,"open_date":"2015-08-27","close_date":null,"date_source":"authoritative_install","status":"OPEN","open_to_others":true,"stall_versions":{"v4":12,"accessible":0,"trailerFriendly":0},"plug_types":{"ccs2":12},"country":"Germany","name":"Moers, Germany"},{"id":"sc:7947","lat":47.581957,"lon":-122.033533,"network":"Tesla","power_kw":325,"stall_count":8,"open_date":"2025-11-10","close_date":null,"date_source":"authoritative_install","status":"OPEN","open_to_others":true,"stall_versions":{"v4":8,"accessible":1},"plug_types":{"nacs":8},"country":"USA","name":"Sammamish, WA - Issaquah-Pine Lake Rd SE"},{"id":"sc:3353","lat":38.619784,"lon":-77.799832,"network":"Tesla","power_kw":250,"stall_count":8,"open_date":"2021-11-19","close_date":null,"date_source":"authoritative_install","status":"OPEN","open_to_others":true,"stall_versions":{"v3":8},"plug_types":{"tpc":0,"nacs":8},"country":"USA","name":"Bealeton, VA"},{"id":"sc:10793","lat":23.066408,"lon":113.065264,"network":"Tesla","power_kw":250,"stall_count":3,"open_date":"2025-12-04","close_date":null,"date_source":"authoritative_install","status":"OPEN","open_to_others":true,"stall_versions":{"v4":3},"plug_types":{"gbt":3},"country":"China","name":"Foshan, China - Wyndham Garden Hotel"},{"id":"sc:4575","lat":41.680309,"lon":26.582186,"network":"Tesla","power_kw":250,"stall_count":6,"open_date":"2023-04-04","close_date":null,"date_source":"authoritative_install","status":"OPEN","open_to_others":true,"stall_versions":{"v3":6,"accessible":0,"trailerFriendly":0},"plug_types":{"ccs2":6},"country":"Turkey","name":"Edirne, T\u00fcrkiye"},{"id":"sc:10796","lat":27.337516,"lon":118.112139,"network":"Tesla","power_kw":250,"stall_count":3,"open_date":"2025-12-04","close_date":null,"date_source":"authoritative_install","status":"OPEN","open_to_others":true,"stall_versions":{"v4":3},"plug_types":{"gbt":3},"country":"China","name":"Nanping, China - Jianfa Yuecheng Center"},{"id":"sc:6979","lat":43.170639,"lon":-73.718632,"network":"Tesla","power_kw":250,"stall_count":8,"open_date":"2024-03-18","close_date":null,"date_source":"authoritative_install","status":"OPEN","open_to_others":true,"stall_versions":{"v3":8,"accessible":1},"plug_types":{"nacs":8,"ccs1":8,"multi":8},"country":"USA","name":"Gansevoort, NY"},{"id":"sc:3569","lat":39.1881397,"lon":-78.1257883,"network":"Tesla","power_kw":250,"stall_count":8,"open_date":"2021-10-21","close_date":null,"date_source":"authoritative_install","status":"OPEN","open_to_others":true,"stall_versions":{"v3":8},"plug_types":{"tpc":0,"nacs":8},"country":"USA","name":"Winchester, VA"},{"id":"sc:7652","lat":37.644621,"lon":-122.104043,"network":"Tesla","power_kw":325,"stall_count":12,"open_date":"2025-11-04","close_date":null,"date_source":"authoritative_install","status":"OPEN","open_to_others":true,"stall_versions":{"v4":12,"accessible":1,"trailerFriendly":0},"plug_types":{"nacs":12},"country":"USA","name":"Hayward, CA"},{"id":"sc:8992","lat":42.699213,"lon":-73.810411,"network":"Tesla","power_kw":325,"stall_count":12,"open_date":"2025-11-07","close_date":null,"date_source":"authoritative_install","status":"OPEN","open_to_others":true,"stall_versions":{"v4":12,"accessible":1,"trailerFriendly":0},"plug_types":{"nacs":12,"ccs1":12,"multi":12},"country":"USA","name":"Albany, NY - Central Ave"},{"id":"sc:5800","lat":43.227409,"lon":-71.35962,"network":"Tesla","power_kw":250,"stall_count":8,"open_date":"2024-04-03","close_date":null,"date_source":"authoritative_install","status":"OPEN","open_to_others":true,"stall_versions":{"v3":8,"accessible":1},"plug_types":{"tpc":0,"nacs":8},"country":"USA","name":"Epsom, NH"},{"id":"sc:3529","lat":-31.87672,"lon":115.777016,"network":"Tesla","power_kw":250,"stall_count":6,"open_date":"2021-07-29","close_date":null,"date_source":"authoritative_install","status":"OPEN","open_to_others":false,"stall_versions":{"v3":6},"plug_types":{"ccs2":6},"country":"Australia","name":"Karrinyup, WA, Australia"},{"id":"sc:3303","lat":-33.024674,"lon":116.878787,"network":"Tesla","power_kw":250,"stall_count":3,"open_date":"2021-08-19","close_date":null,"date_source":"authoritative_install","status":"OPEN","open_to_others":true,"stall_versions":{"v3":3},"plug_types":{"ccs2":3},"country":"Australia","name":"Williams, WA, Australia"},{"id":"sc:10328","lat":40.988854,"lon":27.57721,"network":"Tesla","power_kw":250,"stall_count":8,"open_date":"2025-10-07","close_date":null,"date_source":"authoritative_install","status":"OPEN","open_to_others":true,"stall_versions":{"v4":8,"trailerFriendly":0},"plug_types":{"ccs2":8},"country":"Turkey","name":"Tekirda\u011f, T\u00fcrkiye"},{"id":"sc:1724","lat":38.887481,"lon":-77.092956,"network":"Tesla","power_kw":72,"stall_count":18,"open_date":"2019-04-18","close_date":null,"date_source":"authoritative_install","status":"OPEN","open_to_others":false,"stall_versions":{"urban":18},"plug_types":{"tpc":18},"country":"USA","name":"Arlington, VA"},{"id":"sc:641","lat":52.363197,"lon":-1.945572,"network":"Tesla","power_kw":250,"stall_count":36,"open_date":"2015-07-10","close_date":null,"date_source":"authoritative_install","status":"OPEN","open_to_others":false,"stall_versions":{"v2":16,"v3":20},"plug_types":{"ccs2":36,"type2":16,"multi":16},"country":"United Kingdom","name":"Hopwood Park, UK"},{"id":"sc:1169","lat":50.64372,"lon":-4.28466,"network":"Tesla","power_kw":250,"stall_count":16,"open_date":"2017-08-15","close_date":null,"date_source":"authoritative_install","status":"OPEN","open_to_others":true,"stall_versions":{"v4":16},"plug_types":{"ccs2":16},"country":"United Kingdom","name":"Lifton, UK"},{"id":"sc:7431","lat":30.012235,"lon":-90.221538,"network":"Tesla","power_kw":325,"stall_count":8,"open_date":"2026-02-03","close_date":null,"date_source":"authoritative_install","status":"OPEN","open_to_others":true,"stall_versions":{"v4":8},"plug_types":{"nacs":8},"country":"USA","name":"Metairie, LA - Power Blvd"},{"id":"sc:1204","lat":33.437177,"lon":-117.62712,"network":"Tesla","power_kw":250,"stall_count":49,"open_date":"2017-11-17","close_date":null,"date_source":"authoritative_install","status":"OPEN","open_to_others":false,"stall_versions":{"v2":21,"v3":28},"plug_types":{"tpc":49,"nacs":0},"country":"USA","name":"San Clemente, CA"},{"id":"sc:284","lat":22.274495,"lon":114.171429,"network":"Tesla","power_kw":250,"stall_count":13,"open_date":"2014-07-23","close_date":null,"date_source":"authoritative_install","status":"OPEN","open_to_others":false,"stall_versions":{"v2":10,"v3":3},"plug_types":{"other":10,"ccs2":13,"multi":10},"country":"China","name":"Hopewell Centre, Hong Kong"},{"id":"sc:9601","lat":30.724613,"lon":-86.571885,"network":"Tesla","power_kw":325,"stall_count":12,"open_date":"2026-04-02","close_date":null,"date_source":"authoritative_install","status":"OPEN","open_to_others":true,"stall_versions":{"v4":12,"accessible":1,"trailerFriendly":0},"plug_types":{"nacs":12},"country":"USA","name":"Crestview, FL - Cracker Barrel Dr"},{"id":"sc:6248","lat":36.712294,"lon":-81.928695,"network":"Tesla","power_kw":250,"stall_count":8,"open_date":"2024-02-09","close_date":null,"date_source":"authoritative_install","status":"OPEN","open_to_others":false,"stall_versions":{"v3":8,"accessible":1},"plug_types":{"tpc":8,"nacs":0},"country":"USA","name":"Abingdon, VA"},{"id":"sc:9500","lat":40.699089,"lon":117.435973,"network":"Tesla","power_kw":120,"stall_count":2,"open_date":"2025-01-23","close_date":null,"date_source":"authoritative_install","status":"OPEN","open_to_others":true,"stall_versions":{"v2":2},"plug_types":{"gbt":2},"country":"China","name":"Chengde, China - Jinshanling Anaya"},{"id":"sc:8079","lat":32.247471,"lon":119.823719,"network":"Tesla","power_kw":120,"stall_count":4,"open_date":"2023-09-06","close_date":null,"date_source":"authoritative_install","status":"OPEN","open_to_others":true,"stall_versions":{"v2":4},"plug_types":{"gbt":4},"country":"China","name":"Zhenjiang, China - Yangzhong Central Shopping Mall"},{"id":"sc:8025","lat":46.486275,"lon":11.335481,"network":"Tesla","power_kw":250,"stall_count":12,"open_date":"2024-06-27","close_date":null,"date_source":"authoritative_install","status":"OPEN","open_to_others":true,"stall_versions":{"v4":12,"trailerFriendly":0},"plug_types":{"ccs2":12},"country":"Italy","name":"Bolzano, Italy"},{"id":"sc:10611","lat":38.670857,"lon":29.42427,"network":"Tesla","power_kw":250,"stall_count":12,"open_date":"2026-03-12","close_date":null,"date_source":"authoritative_install","status":"OPEN","open_to_others":true,"stall_versions":{"v4":12,"trailerFriendly":0},"plug_types":{"ccs2":12},"country":"Turkey","name":"U\u015fak, T\u00fcrkiye - Merkez"},{"id":"sc:8878","lat":41.134129,"lon":-85.014406,"network":"Tesla","power_kw":325,"stall_count":12,"open_date":"2025-11-05","close_date":null,"date_source":"authoritative_install","status":"OPEN","open_to_others":true,"stall_versions":{"v4":12,"accessible":1},"plug_types":{"nacs":12},"country":"USA","name":"Fort Wayne, IN - Maysville Rd"},{"id":"sc:6346","lat":29.769035,"lon":-96.047502,"network":"Tesla","power_kw":250,"stall_count":16,"open_date":"2024-02-08","close_date":null,"date_source":"authoritative_install","status":"OPEN","open_to_others":true,"stall_versions":{"v3":16,"accessible":4,"trailerFriendly":0},"plug_types":{"nacs":16},"country":"USA","name":"Sealy, TX"},{"id":"sc:6658","lat":35.310615,"lon":-86.879765,"network":"Tesla","power_kw":250,"stall_count":24,"open_date":"2023-12-23","close_date":null,"date_source":"authoritative_install","status":"OPEN","open_to_others":true,"stall_versions":{"v3":24,"accessible":2,"trailerFriendly":4},"plug_types":{"tpc":0,"nacs":24},"country":"USA","name":"Cornersville, TN"},{"id":"sc:8263","lat":-33.75321,"lon":151.28736,"network":"Tesla","power_kw":250,"stall_count":4,"open_date":"2024-08-28","close_date":null,"date_source":"authoritative_install","status":"OPEN","open_to_others":false,"stall_versions":{"v3":4},"plug_types":{"ccs2":4},"country":"Australia","name":"Dee Why, NSW"},{"id":"sc:6770","lat":46.804051,"lon":-123.012244,"network":"Tesla","power_kw":250,"stall_count":12,"open_date":"2023-12-11","close_date":null,"date_source":"authoritative_install","status":"OPEN","open_to_others":true,"stall_versions":{"v3":12,"accessible":1},"plug_types":{"tpc":0,"nacs":12},"country":"USA","name":"Rochester, WA"},{"id":"sc:7502","lat":37.973413,"lon":115.246666,"network":"Tesla","power_kw":120,"stall_count":4,"open_date":"2024-01-26","close_date":null,"date_source":"authoritative_install","status":"OPEN","open_to_others":true,"stall_versions":{"v2":4},"plug_types":{"gbt":4},"country":"China","name":"Shijiazhuang, China - Xinji Market Juran Home"},{"id":"sc:7258","lat":39.02405,"lon":117.21914,"network":"Tesla","power_kw":120,"stall_count":4,"open_date":"2023-12-08","close_date":null,"date_source":"authoritative_install","status":"OPEN","open_to_others":true,"stall_versions":{"v2":4},"plug_types":{"gbt":4},"country":"China","name":"Tianjin, China - Meijiang Impression City"},{"id":"sc:3801","lat":38.859305,"lon":-77.357542,"network":"Tesla","power_kw":250,"stall_count":12,"open_date":"2022-05-26","close_date":null,"date_source":"authoritative_install","status":"OPEN","open_to_others":true,"stall_versions":{"v3":12},"plug_types":{"tpc":0,"nacs":12},"country":"USA","name":"Fairfax, VA"},{"id":"sc:1751","lat":41.97509,"lon":-87.8665,"network":"Tesla","power_kw":72,"stall_count":10,"open_date":null,"close_date":null,"date_source":"authoritative_install","status":"CLOSED_TEMP","open_to_others":false,"stall_versions":{"urban":10,"accessible":0,"trailerFriendly":0},"plug_types":{"tpc":10},"country":"USA","name":"Rosemont, IL"},{"id":"sc:2214","lat":46.551944,"lon":-87.470222,"network":"Tesla","power_kw":250,"stall_count":8,"open_date":"2021-07-01","close_date":null,"date_source":"authoritative_install","status":"OPEN","open_to_others":true,"stall_versions":{"v3":8},"plug_types":{"tpc":0,"nacs":8},"country":"USA","name":"Marquette, MI"},{"id":"sc:10633","lat":35.230217,"lon":115.481119,"network":"Tesla","power_kw":250,"stall_count":3,"open_date":"2025-11-20","close_date":null,"date_source":"authoritative_install","status":"OPEN","open_to_others":false,"stall_versions":{"v3":3},"plug_types":{"gbt":3},"country":"China","name":"Heze, China - Mudan Wanda Plaza"},{"id":"sc:867","lat":41.680372,"lon":-91.591467,"network":"Tesla","power_kw":150,"stall_count":8,"open_date":"2016-09-29","close_date":null,"date_source":"authoritative_install","status":"OPEN","open_to_others":false,"stall_versions":{"v2":8},"plug_types":{"tpc":8},"country":"USA","name":"Coralville, IA"},{"id":"sc:914","lat":41.575888,"lon":-90.513526,"network":"Tesla","power_kw":150,"stall_count":8,"open_date":"2016-10-21","close_date":null,"date_source":"authoritative_install","status":"OPEN","open_to_others":false,"stall_versions":{"v2":8},"plug_types":{"tpc":8},"country":"USA","name":"Davenport, IA"},{"id":"sc:7439","lat":40.272638,"lon":-111.704982,"network":"Tesla","power_kw":250,"stall_count":8,"open_date":"2024-02-01","close_date":null,"date_source":"authoritative_install","status":"OPEN","open_to_others":true,"stall_versions":{"v3":8,"accessible":1},"plug_types":{"tpc":0,"nacs":8},"country":"USA","name":"Orem, UT"},{"id":"sc:6440","lat":41.666602,"lon":-74.671513,"network":"Tesla","power_kw":250,"stall_count":12,"open_date":"2024-01-26","close_date":null,"date_source":"authoritative_install","status":"OPEN","open_to_others":true,"stall_versions":{"v3":12,"accessible":1},"plug_types":{"nacs":12,"ccs1":12,"multi":12},"country":"USA","name":"Monticello, NY"},{"id":"sc:186","lat":31.58224,"lon":-97.10915,"network":"Tesla","power_kw":250,"stall_count":22,"open_date":"2013-09-07","close_date":null,"date_source":"authoritative_install","status":"OPEN","open_to_others":false,"stall_versions":{"v2":10,"v3":12,"accessible":1,"trailerFriendly":0},"plug_types":{"tpc":22,"nacs":0},"country":"USA","name":"Waco, TX"},{"id":"sc:6181","lat":46.005169,"lon":-112.610743,"network":"Tesla","power_kw":250,"stall_count":8,"open_date":"2024-01-25","close_date":null,"date_source":"authoritative_install","status":"OPEN","open_to_others":true,"stall_versions":{"v3":8,"accessible":1,"trailerFriendly":0},"plug_types":{"nacs":8},"country":"USA","name":"Butte, MT - Grizzly Trl"},{"id":"sc:10334","lat":49.772161,"lon":6.657573,"network":"Tesla","power_kw":250,"stall_count":8,"open_date":"2026-03-17","close_date":null,"date_source":"authoritative_install","status":"OPEN","open_to_others":true,"stall_versions":{"v4":8,"trailerFriendly":0},"plug_types":{"ccs2":8},"country":"Germany","name":"Trier, Germany"},{"id":"sc:8033","lat":43.263023,"lon":6.580442,"network":"Tesla","power_kw":250,"stall_count":8,"open_date":"2024-07-04","close_date":null,"date_source":"authoritative_install","status":"EXPANDING","open_to_others":true,"stall_versions":{"v4":8,"accessible":1,"trailerFriendly":0},"plug_types":{"ccs2":8},"country":"France","name":"Gassin, France"},{"id":"sc:9389","lat":50.87165,"lon":-119.384184,"network":"Tesla","power_kw":325,"stall_count":12,"open_date":"2025-03-25","close_date":null,"date_source":"authoritative_install","status":"OPEN","open_to_others":true,"stall_versions":{"v4":12},"plug_types":{"nacs":12},"country":"Canada","name":"Blind Bay, BC"},{"id":"sc:6776","lat":19.303941,"lon":-99.187071,"network":"Tesla","power_kw":250,"stall_count":8,"open_date":"2023-10-31","close_date":null,"date_source":"authoritative_install","status":"OPEN","open_to_others":true,"stall_versions":{"v3":8,"accessible":0,"trailerFriendly":0},"plug_types":{"nacs":8},"country":"Mexico","name":"Mexico City South, Mexico"},{"id":"sc:6839","lat":45.975254,"lon":-94.335543,"network":"Tesla","power_kw":250,"stall_count":8,"open_date":"2023-10-31","close_date":null,"date_source":"authoritative_install","status":"OPEN","open_to_others":false,"stall_versions":{"v3":8,"accessible":1},"plug_types":{"tpc":8,"nacs":0},"country":"USA","name":"Little Falls, MN"},{"id":"sc:1991","lat":41.725315,"lon":-87.683693,"network":"Tesla","power_kw":150,"stall_count":10,"open_date":"2019-06-16","close_date":null,"date_source":"authoritative_install","status":"OPEN","open_to_others":false,"stall_versions":{"v2":10},"plug_types":{"tpc":10},"country":"USA","name":"Evergreen Park, IL"},{"id":"sc:7508","lat":22.782408,"lon":100.977669,"network":"Tesla","power_kw":120,"stall_count":2,"open_date":"2024-01-05","close_date":null,"date_source":"authoritative_install","status":"OPEN","open_to_others":true,"stall_versions":{"v2":2},"plug_types":{"gbt":2},"country":"China","name":"Pu'er, China - Yuecheng Shiguangli Shopping Park"},{"id":"sc:7122","lat":-23.34277,"lon":150.52087,"network":"Tesla","power_kw":250,"stall_count":7,"open_date":"2023-12-15","close_date":null,"date_source":"authoritative_install","status":"OPEN","open_to_others":true,"stall_versions":{"v3":7},"plug_types":{"ccs2":7},"country":"Australia","name":"Rockhampton, QLD"},{"id":"sc:6845","lat":-23.984083,"lon":151.212456,"network":"Tesla","power_kw":250,"stall_count":6,"open_date":"2023-09-30","close_date":null,"date_source":"authoritative_install","status":"OPEN","open_to_others":true,"stall_versions":{"v3":6,"trailerFriendly":1},"plug_types":{"ccs2":6},"country":"Australia","name":"Calliope, QLD"},{"id":"sc:1043","lat":38.067051,"lon":-78.492702,"network":"Tesla","power_kw":150,"stall_count":8,"open_date":"2017-09-08","close_date":null,"date_source":"authoritative_install","status":"OPEN","open_to_others":false,"stall_versions":{"v2":8},"plug_types":{"tpc":8},"country":"USA","name":"Charlottesville, VA"},{"id":"sc:4013","lat":37.516011,"lon":-75.831544,"network":"Tesla","power_kw":250,"stall_count":4,"open_date":"2022-03-19","close_date":null,"date_source":"authoritative_install","status":"OPEN","open_to_others":true,"stall_versions":{"v3":4},"plug_types":{"tpc":0,"nacs":4},"country":"USA","name":"Exmore, VA"},{"id":"sc:6826","lat":33.200135,"lon":-101.382603,"network":"Tesla","power_kw":250,"stall_count":8,"open_date":"2024-03-27","close_date":null,"date_source":"authoritative_install","status":"OPEN","open_to_others":true,"stall_versions":{"v3":8,"accessible":1,"trailerFriendly":0},"plug_types":{"nacs":8},"country":"USA","name":"Post, TX"},{"id":"sc:3835","lat":37.466222,"lon":-79.117738,"network":"Tesla","power_kw":250,"stall_count":8,"open_date":"2021-12-09","close_date":null,"date_source":"authoritative_install","status":"OPEN","open_to_others":true,"stall_versions":{"v3":8},"plug_types":{"tpc":0,"nacs":8},"country":"USA","name":"Madison Heights, VA"},{"id":"sc:3976","lat":37.613437,"lon":-77.328344,"network":"Tesla","power_kw":250,"stall_count":8,"open_date":"2022-05-21","close_date":null,"date_source":"authoritative_install","status":"OPEN","open_to_others":true,"stall_versions":{"v3":8},"plug_types":{"tpc":0,"nacs":8},"country":"USA","name":"Mechanicsville, VA"},{"id":"sc:6899","lat":61.11684,"lon":14.62767,"network":"Tesla","power_kw":250,"stall_count":12,"open_date":"2023-12-21","close_date":null,"date_source":"authoritative_install","status":"OPEN","open_to_others":true,"stall_versions":{"v4":12,"accessible":0,"trailerFriendly":6},"plug_types":{"ccs2":12},"country":"Sweden","name":"Orsa, Sweden"},{"id":"sc:7066","lat":61.494717,"lon":21.797995,"network":"Tesla","power_kw":250,"stall_count":8,"open_date":"2023-12-22","close_date":null,"date_source":"authoritative_install","status":"OPEN","open_to_others":true,"stall_versions":{"v4":8,"accessible":0,"trailerFriendly":0},"plug_types":{"ccs2":8},"country":"Finland","name":"Pori, Finland"},{"id":"sc:934","lat":44.042781,"lon":-71.667392,"network":"Tesla","power_kw":250,"stall_count":10,"open_date":"2016-11-24","close_date":null,"date_source":"authoritative_install","status":"OPEN","open_to_others":false,"stall_versions":{"v2":6,"v3":4},"plug_types":{"tpc":6,"nacs":4},"country":"USA","name":"Lincoln, NH"},{"id":"sc:2021","lat":-27.577891,"lon":151.946812,"network":"Tesla","power_kw":130,"stall_count":4,"open_date":"2020-03-04","close_date":null,"date_source":"authoritative_install","status":"OPEN","open_to_others":true,"stall_versions":{"v2":4},"plug_types":{"ccs2":4,"type2":4,"multi":4},"country":"Australia","name":"Toowoomba, QLD"},{"id":"sc:7206","lat":-27.239432,"lon":153.013634,"network":"Tesla","power_kw":250,"stall_count":9,"open_date":"2024-02-27","close_date":null,"date_source":"authoritative_install","status":"OPEN","open_to_others":false,"stall_versions":{"v3":9},"plug_types":{"ccs2":9},"country":"Australia","name":"North Lakes, QLD"},{"id":"sc:10645","lat":28.64104,"lon":115.867292,"network":"Tesla","power_kw":250,"stall_count":3,"open_date":"2025-11-21","close_date":null,"date_source":"authoritative_install","status":"OPEN","open_to_others":true,"stall_versions":{"v4":3},"plug_types":{"gbt":3},"country":"China","name":"Nanchang, China - Chaoyang Central Park"},{"id":"sc:8470","lat":52.208734,"lon":-113.815148,"network":"Tesla","power_kw":325,"stall_count":12,"open_date":"2026-02-25","close_date":null,"date_source":"authoritative_install","status":"OPEN","open_to_others":true,"stall_versions":{"v4":12},"plug_types":{"nacs":12},"country":"Canada","name":"Red Deer County, AB - Leva Ave"},{"id":"sc:7015","lat":33.553383,"lon":-112.268598,"network":"Tesla","power_kw":250,"stall_count":16,"open_date":"2024-03-21","close_date":null,"date_source":"authoritative_install","status":"OPEN","open_to_others":true,"stall_versions":{"v3":16,"accessible":1},"plug_types":{"tpc":0,"nacs":16},"country":"USA","name":"Peoria, AZ"},{"id":"sc:101","lat":35.174272,"lon":-111.66328,"network":"Tesla","power_kw":150,"stall_count":12,"open_date":"2014-01-10","close_date":null,"date_source":"authoritative_install","status":"OPEN","open_to_others":false,"stall_versions":{"v2":12},"plug_types":{"tpc":12},"country":"USA","name":"Flagstaff, AZ"},{"id":"sc:1731","lat":33.824931,"lon":-116.548824,"network":"Tesla","power_kw":250,"stall_count":24,"open_date":"2019-06-19","close_date":null,"date_source":"authoritative_install","status":"OPEN","open_to_others":false,"stall_versions":{"urban":12,"v3":12},"plug_types":{"tpc":24,"nacs":0},"country":"USA","name":"Palm Springs, CA"},{"id":"sc:7102","lat":49.645583,"lon":1.045842,"network":"Tesla","power_kw":250,"stall_count":12,"open_date":"2024-03-26","close_date":null,"date_source":"authoritative_install","status":"OPEN","open_to_others":true,"stall_versions":{"v4":12,"accessible":0,"trailerFriendly":0},"plug_types":{"ccs2":12},"country":"France","name":"Varneville-Bretteville, France"},{"id":"sc:6940","lat":40.342138,"lon":-80.118326,"network":"Tesla","power_kw":250,"stall_count":8,"open_date":"2023-12-06","close_date":null,"date_source":"authoritative_install","status":"OPEN","open_to_others":true,"stall_versions":{"v3":8,"accessible":1,"trailerFriendly":0},"plug_types":{"tpc":0,"nacs":8},"country":"USA","name":"Bridgeville, PA"},{"id":"sc:10644","lat":29.972506,"lon":121.577162,"network":"Tesla","power_kw":250,"stall_count":3,"open_date":"2025-11-21","close_date":null,"date_source":"authoritative_install","status":"OPEN","open_to_others":true,"stall_versions":{"v4":3},"plug_types":{"gbt":3},"country":"China","name":"Ningbo, China - Camel Impression Mall"},{"id":"sc:10639","lat":28.709035,"lon":115.873327,"network":"Tesla","power_kw":250,"stall_count":3,"open_date":"2025-11-21","close_date":null,"date_source":"authoritative_install","status":"OPEN","open_to_others":true,"stall_versions":{"v4":3},"plug_types":{"gbt":3},"country":"China","name":"Nanchang, China - Vanke Times Square Metro Station"},{"id":"sc:2063","lat":38.895195,"lon":-77.273938,"network":"Tesla","power_kw":250,"stall_count":8,"open_date":"2020-07-16","close_date":null,"date_source":"authoritative_install","status":"OPEN","open_to_others":true,"stall_versions":{"v3":8},"plug_types":{"tpc":0,"nacs":8},"country":"USA","name":"Vienna, VA"},{"id":"sc:2611","lat":37.903836,"lon":-76.865734,"network":"Tesla","power_kw":250,"stall_count":8,"open_date":"2021-01-14","close_date":null,"date_source":"authoritative_install","status":"OPEN","open_to_others":true,"stall_versions":{"v3":8},"plug_types":{"tpc":0,"nacs":8},"country":"USA","name":"Tappahannock, VA"},{"id":"sc:10652","lat":18.367505,"lon":109.733776,"network":"Tesla","power_kw":250,"stall_count":3,"open_date":"2025-11-21","close_date":null,"date_source":"authoritative_install","status":"OPEN","open_to_others":true,"stall_versions":{"v4":3},"plug_types":{"gbt":3},"country":"China","name":"Sanya, China - Super Mediterranean Xiyue"},{"id":"sc:2498","lat":37.266487,"lon":-76.676613,"network":"Tesla","power_kw":250,"stall_count":8,"open_date":"2020-12-18","close_date":null,"date_source":"authoritative_install","status":"OPEN","open_to_others":true,"stall_versions":{"v3":8},"plug_types":{"tpc":0,"nacs":8},"country":"USA","name":"Williamsburg, VA"},{"id":"sc:10642","lat":39.355187,"lon":115.909331,"network":"Tesla","power_kw":250,"stall_count":3,"open_date":"2025-11-21","close_date":null,"date_source":"authoritative_install","status":"OPEN","open_to_others":true,"stall_versions":{"v4":3},"plug_types":{"gbt":3},"country":"China","name":"Gaobeidian, China - Shouheng International Hotel"},{"id":"sc:2646","lat":38.467411,"lon":-77.412069,"network":"Tesla","power_kw":250,"stall_count":8,"open_date":"2021-05-22","close_date":null,"date_source":"authoritative_install","status":"OPEN","open_to_others":true,"stall_versions":{"v3":8},"plug_types":{"tpc":0,"nacs":8},"country":"USA","name":"Stafford, VA"},{"id":"sc:2406","lat":37.394816,"lon":-121.945157,"network":"Tesla","power_kw":72,"stall_count":16,"open_date":"2020-09-17","close_date":null,"date_source":"authoritative_install","status":"OPEN","open_to_others":false,"stall_versions":{"urban":16},"plug_types":{"tpc":16},"country":"USA","name":"Santa Clara, CA"},{"id":"sc:10638","lat":46.650084,"lon":126.970317,"network":"Tesla","power_kw":120,"stall_count":2,"open_date":"2025-11-21","close_date":null,"date_source":"authoritative_install","status":"OPEN","open_to_others":true,"stall_versions":{"v2":2},"plug_types":{"gbt":2},"country":"China","name":"Suihua, China - Wanda Plaza"},{"id":"sc:1880","lat":48.281347,"lon":7.77755,"network":"Tesla","power_kw":250,"stall_count":10,"open_date":"2019-03-28","close_date":null,"date_source":"authoritative_install","status":"OPEN","open_to_others":true,"stall_versions":{"v4":10,"accessible":0,"trailerFriendly":0},"plug_types":{"ccs2":10},"country":"Germany","name":"Kappel-Grafenhausen, Germany"},{"id":"sc:6736","lat":38.038621,"lon":-79.026271,"network":"Tesla","power_kw":250,"stall_count":8,"open_date":"2023-09-27","close_date":null,"date_source":"authoritative_install","status":"OPEN","open_to_others":true,"stall_versions":{"v3":8},"plug_types":{"tpc":0,"nacs":8},"country":"USA","name":"Stuarts Draft, VA"},{"id":"sc:2243","lat":49.273806,"lon":8.695444,"network":"Tesla","power_kw":250,"stall_count":22,"open_date":"2020-01-17","close_date":null,"date_source":"authoritative_install","status":"OPEN","open_to_others":true,"stall_versions":{"v4":22},"plug_types":{"ccs2":22},"country":"Germany","name":"Rauenberg, Germany"},{"id":"sc:6573","lat":34.008048,"lon":-118.220145,"network":"Tesla","power_kw":250,"stall_count":8,"open_date":"2023-07-11","close_date":null,"date_source":"authoritative_install","status":"OPEN","open_to_others":true,"stall_versions":{"v3":8,"accessible":1},"plug_types":{"nacs":8},"country":"USA","name":"Vernon, CA"},{"id":"sc:405","lat":48.765472,"lon":13.046667,"network":"Tesla","power_kw":250,"stall_count":8,"open_date":"2014-10-30","close_date":null,"date_source":"authoritative_install","status":"OPEN","open_to_others":true,"stall_versions":{"v4":8,"trailerFriendly":0},"plug_types":{"ccs2":8},"country":"Germany","name":"Hengersberg, Germany"},{"id":"sc:10654","lat":31.91877,"lon":118.660605,"network":"Tesla","power_kw":250,"stall_count":3,"open_date":"2025-11-21","close_date":null,"date_source":"authoritative_install","status":"OPEN","open_to_others":true,"stall_versions":{"v4":3},"plug_types":{"gbt":3},"country":"China","name":"Nanjing, China - Yuhua Wuyue Plaza"},{"id":"sc:211","lat":49.211936,"lon":9.077322,"network":"Tesla","power_kw":250,"stall_count":8,"open_date":"2013-12-14","close_date":null,"date_source":"authoritative_install","status":"OPEN","open_to_others":true,"stall_versions":{"v4":8,"accessible":0,"trailerFriendly":0},"plug_types":{"ccs2":8},"country":"Germany","name":"Bad Rappenau, Germany"},{"id":"sc:210","lat":47.88036,"lon":10.040488,"network":"Tesla","power_kw":250,"stall_count":8,"open_date":"2013-12-14","close_date":null,"date_source":"authoritative_install","status":"OPEN","open_to_others":true,"stall_versions":{"v4":8,"accessible":0,"trailerFriendly":0},"plug_types":{"ccs2":8},"country":"Germany","name":"Aichstetten, Germany"},{"id":"sc:2407","lat":36.840677,"lon":-76.055615,"network":"Tesla","power_kw":250,"stall_count":8,"open_date":"2021-05-21","close_date":null,"date_source":"authoritative_install","status":"OPEN","open_to_others":true,"stall_versions":{"v3":8},"plug_types":{"tpc":0,"nacs":8},"country":"USA","name":"Virginia Beach, VA"},{"id":"sc:6986","lat":56.231352,"lon":15.257779,"network":"Tesla","power_kw":250,"stall_count":16,"open_date":"2023-12-21","close_date":null,"date_source":"authoritative_install","status":"OPEN","open_to_others":true,"stall_versions":{"v4":16,"accessible":0,"trailerFriendly":0},"plug_types":{"ccs2":16},"country":"Sweden","name":"Ronneby, Sweden"},{"id":"sc:10341","lat":47.079223,"lon":-0.834343,"network":"Tesla","power_kw":250,"stall_count":8,"open_date":"2026-03-05","close_date":null,"date_source":"authoritative_install","status":"OPEN","open_to_others":true,"stall_versions":{"v4":8,"accessible":1},"plug_types":{"ccs2":8},"country":"France","name":"Cholet, France"},{"id":"sc:8028","lat":37.071914,"lon":-88.124178,"network":"Tesla","power_kw":325,"stall_count":8,"open_date":"2024-08-09","close_date":null,"date_source":"authoritative_install","status":"OPEN","open_to_others":true,"stall_versions":{"v4":8,"accessible":1},"plug_types":{"nacs":8},"country":"USA","name":"Kuttawa, KY - US-62"},{"id":"sc:213","lat":48.411068,"lon":10.440378,"network":"Tesla","power_kw":250,"stall_count":8,"open_date":"2013-12-13","close_date":null,"date_source":"authoritative_install","status":"OPEN","open_to_others":true,"stall_versions":{"v4":8},"plug_types":{"ccs2":8},"country":"Germany","name":"Jettingen, Germany"},{"id":"sc:383","lat":49.507337,"lon":8.637361,"network":"Tesla","power_kw":250,"stall_count":8,"open_date":"2014-11-13","close_date":null,"date_source":"authoritative_install","status":"OPEN","open_to_others":true,"stall_versions":{"v4":8},"plug_types":{"ccs2":8},"country":"Germany","name":"Hirschberg, Germany"},{"id":"sc:420","lat":48.641317,"lon":8.037744,"network":"Tesla","power_kw":250,"stall_count":6,"open_date":"2014-12-14","close_date":null,"date_source":"authoritative_install","status":"OPEN","open_to_others":true,"stall_versions":{"v4":6,"trailerFriendly":0},"plug_types":{"ccs2":6},"country":"Germany","name":"Achern, Germany"},{"id":"sc:1756","lat":50.56268,"lon":7.525285,"network":"Tesla","power_kw":250,"stall_count":40,"open_date":"2018-12-20","close_date":null,"date_source":"authoritative_install","status":"OPEN","open_to_others":true,"stall_versions":{"v3":20,"v4":20,"accessible":0,"trailerFriendly":0},"plug_types":{"ccs2":40},"country":"Germany","name":"Oberhonnefeld, Germany"},{"id":"sc:1222","lat":36.137863,"lon":120.428917,"network":"Tesla","power_kw":120,"stall_count":6,"open_date":null,"close_date":null,"date_source":"authoritative_install","status":"CLOSED_TEMP","open_to_others":false,"stall_versions":{"v2":6},"plug_types":{"gbt":6},"country":"China","name":"Qingdao, China - Laoshan Tesla Center"},{"id":"sc:10640","lat":28.204445,"lon":112.992696,"network":"Tesla","power_kw":250,"stall_count":3,"open_date":"2025-11-21","close_date":null,"date_source":"authoritative_install","status":"OPEN","open_to_others":true,"stall_versions":{"v4":3},"plug_types":{"gbt":3},"country":"China","name":"Changsha, China - Xiaoxiang Huatian Hotel"},{"id":"sc:195","lat":48.509772,"lon":-122.338625,"network":"Tesla","power_kw":150,"stall_count":10,"open_date":"2013-07-13","close_date":null,"date_source":"authoritative_install","status":"OPEN","open_to_others":false,"stall_versions":{"urban":2,"v2":8},"plug_types":{"tpc":10},"country":"USA","name":"Burlington, WA"},{"id":"sc:10643","lat":32.49797,"lon":119.902233,"network":"Tesla","power_kw":250,"stall_count":3,"open_date":"2025-11-21","close_date":null,"date_source":"authoritative_install","status":"OPEN","open_to_others":true,"stall_versions":{"v4":3},"plug_types":{"gbt":3},"country":"China","name":"Taizhou, China - Hampton by Hilton Hailing"},{"id":"sc:10649","lat":31.029188,"lon":121.379073,"network":"Tesla","power_kw":250,"stall_count":3,"open_date":"2025-11-21","close_date":null,"date_source":"authoritative_install","status":"OPEN","open_to_others":true,"stall_versions":{"v4":3},"plug_types":{"gbt":3},"country":"China","name":"Shanghai, China - Maqiao Wanda Plaza"},{"id":"sc:10641","lat":34.814742,"lon":113.589421,"network":"Tesla","power_kw":250,"stall_count":3,"open_date":"2025-11-21","close_date":null,"date_source":"authoritative_install","status":"OPEN","open_to_others":true,"stall_versions":{"v4":3},"plug_types":{"gbt":3},"country":"China","name":"Zhengzhou, China - High-tech Zone Wanda Plaza"},{"id":"sc:216","lat":50.202872,"lon":11.776552,"network":"Tesla","power_kw":250,"stall_count":20,"open_date":"2014-05-12","close_date":null,"date_source":"authoritative_install","status":"OPEN","open_to_others":true,"stall_versions":{"v3":10,"v4":10,"accessible":0,"trailerFriendly":0},"plug_types":{"ccs2":20},"country":"Germany","name":"M\u00fcnchberg-Nord, Germany"},{"id":"sc:2161","lat":47.72835,"lon":11.362099,"network":"Tesla","power_kw":250,"stall_count":12,"open_date":"2019-11-22","close_date":null,"date_source":"authoritative_install","status":"OPEN","open_to_others":true,"stall_versions":{"v3":4,"v4":8,"accessible":0,"trailerFriendly":0},"plug_types":{"ccs2":12},"country":"Germany","name":"Sindelsdorf, Germany"},{"id":"sc:10651","lat":31.456985,"lon":119.436832,"network":"Tesla","power_kw":250,"stall_count":3,"open_date":"2025-11-21","close_date":null,"date_source":"authoritative_install","status":"OPEN","open_to_others":true,"stall_versions":{"v4":3},"plug_types":{"gbt":3},"country":"China","name":"Liyang, China - Lithium Enjoyment Plaza"},{"id":"sc:265","lat":48.272557,"lon":12.549892,"network":"Tesla","power_kw":250,"stall_count":4,"open_date":"2014-08-01","close_date":null,"date_source":"authoritative_install","status":"OPEN","open_to_others":true,"stall_versions":{"v4":4,"accessible":0,"trailerFriendly":0},"plug_types":{"ccs2":4},"country":"Germany","name":"M\u00fchldorf, Germany"},{"id":"sc:10655","lat":38.879153,"lon":115.47646,"network":"Tesla","power_kw":250,"stall_count":3,"open_date":"2025-11-21","close_date":null,"date_source":"authoritative_install","status":"OPEN","open_to_others":true,"stall_versions":{"v4":3},"plug_types":{"gbt":3},"country":"China","name":"Baoding, China - Maoye Center"},{"id":"sc:10657","lat":43.637557,"lon":122.287308,"network":"Tesla","power_kw":120,"stall_count":4,"open_date":"2025-11-21","close_date":null,"date_source":"authoritative_install","status":"OPEN","open_to_others":true,"stall_versions":{"v2":4},"plug_types":{"gbt":4},"country":"China","name":"Tongliao, China - Wanda Plaza"},{"id":"sc:463","lat":48.510724,"lon":11.58227,"network":"Tesla","power_kw":250,"stall_count":8,"open_date":"2015-01-20","close_date":null,"date_source":"authoritative_install","status":"OPEN","open_to_others":true,"stall_versions":{"v4":8,"accessible":0,"trailerFriendly":0},"plug_types":{"ccs2":8},"country":"Germany","name":"Schweitenkirchen, Germany"},{"id":"sc:2619","lat":20.821133,"lon":-156.920132,"network":"Tesla","power_kw":72,"stall_count":4,"open_date":"2021-07-01","close_date":null,"date_source":"authoritative_install","status":"OPEN","open_to_others":false,"stall_versions":{"urban":4,"accessible":0},"plug_types":{"tpc":4},"country":"USA","name":"Lana'i City, HI"},{"id":"sc:10662","lat":30.013019,"lon":103.043855,"network":"Tesla","power_kw":250,"stall_count":3,"open_date":"2025-11-21","close_date":null,"date_source":"authoritative_install","status":"OPEN","open_to_others":true,"stall_versions":{"v4":3},"plug_types":{"gbt":3},"country":"China","name":"Ya'an, China - Wanda Plaza"},{"id":"sc:651","lat":52.657647,"lon":8.16906,"network":"Tesla","power_kw":250,"stall_count":20,"open_date":"2015-08-07","close_date":null,"date_source":"authoritative_install","status":"OPEN","open_to_others":true,"stall_versions":{"v3":8,"v4":12,"accessible":0,"trailerFriendly":0},"plug_types":{"ccs2":20},"country":"Germany","name":"Lohne, Germany"},{"id":"sc:6805","lat":36.717487,"lon":-76.65664,"network":"Tesla","power_kw":325,"stall_count":8,"open_date":"2023-12-27","close_date":null,"date_source":"authoritative_install","status":"OPEN","open_to_others":true,"stall_versions":{"v4":8},"plug_types":{"tpc":0,"nacs":8},"country":"USA","name":"Suffolk, VA"},{"id":"sc:10677","lat":25.254244,"lon":110.17463,"network":"Tesla","power_kw":250,"stall_count":3,"open_date":"2025-11-21","close_date":null,"date_source":"authoritative_install","status":"OPEN","open_to_others":true,"stall_versions":{"v4":3},"plug_types":{"gbt":3},"country":"China","name":"Guilin, China - Wuyue Plaza"},{"id":"sc:7777","lat":32.5049,"lon":120.144121,"network":"Tesla","power_kw":250,"stall_count":3,"open_date":"2024-03-25","close_date":null,"date_source":"authoritative_install","status":"OPEN","open_to_others":false,"stall_versions":{"v3":3},"plug_types":{"gbt":3},"country":"China","name":"Taizhou, China - Jiangyan Times Commercial Plaza"},{"id":"sc:631","lat":54.093003,"lon":13.085987,"network":"Tesla","power_kw":150,"stall_count":4,"open_date":null,"close_date":null,"date_source":"authoritative_install","status":"CLOSED_PERM","open_to_others":true,"stall_versions":{"v2":4,"accessible":0,"trailerFriendly":0},"plug_types":{"ccs2":4,"type2":4,"multi":4},"country":"Germany","name":"S\u00fcderholz, Germany (old)"},{"id":"sc:10353","lat":1.551487,"lon":103.79862,"network":"Tesla","power_kw":250,"stall_count":4,"open_date":"2026-03-20","close_date":null,"date_source":"authoritative_install","status":"OPEN","open_to_others":false,"stall_versions":{"v4":4,"accessible":0,"trailerFriendly":0},"plug_types":{"ccs2":4},"country":"Malaysia","name":"Johor Bahru, Malaysia - Toppen Shopping Centre"},{"id":"sc:2425","lat":64.117613,"lon":-21.899654,"network":"Tesla","power_kw":125,"stall_count":4,"open_date":null,"close_date":null,"date_source":"authoritative_install","status":"CLOSED_TEMP","open_to_others":true,"stall_versions":{"v2":4,"accessible":0,"trailerFriendly":0},"plug_types":{"ccs2":4,"type2":4,"multi":4},"country":"Iceland","name":"Fossvogur, Iceland"},{"id":"sc:1606","lat":47.610717,"lon":-122.202226,"network":"Tesla","power_kw":72,"stall_count":8,"open_date":"2021-03-30","close_date":null,"date_source":"authoritative_install","status":"OPEN","open_to_others":false,"stall_versions":{"urban":8},"plug_types":{"tpc":8},"country":"USA","name":"Bellevue, WA"},{"id":"sc:193","lat":37.669832,"lon":-77.461419,"network":"Tesla","power_kw":150,"stall_count":20,"open_date":"2013-10-24","close_date":null,"date_source":"authoritative_install","status":"OPEN","open_to_others":false,"stall_versions":{"v2":20},"plug_types":{"tpc":20},"country":"USA","name":"Glen Allen, VA"},{"id":"sc:10646","lat":32.0425,"lon":118.652701,"network":"Tesla","power_kw":250,"stall_count":3,"open_date":"2025-11-21","close_date":null,"date_source":"authoritative_install","status":"OPEN","open_to_others":true,"stall_versions":{"v4":3},"plug_types":{"gbt":3},"country":"China","name":"Nanjing, China - Jiangbei New Area Research and Innovation Park Talent Apartment"},{"id":"sc:4442","lat":37.778564,"lon":-79.434062,"network":"Tesla","power_kw":250,"stall_count":8,"open_date":"2023-03-27","close_date":null,"date_source":"authoritative_install","status":"OPEN","open_to_others":true,"stall_versions":{"v3":8},"plug_types":{"tpc":0,"nacs":8},"country":"USA","name":"Lexington, VA - E Nelson St"},{"id":"sc:1143","lat":48.21237,"lon":-122.183551,"network":"Tesla","power_kw":150,"stall_count":16,"open_date":"2017-06-28","close_date":null,"date_source":"authoritative_install","status":"OPEN","open_to_others":false,"stall_versions":{"v2":16},"plug_types":{"tpc":16},"country":"USA","name":"Arlington, WA"},{"id":"sc:10647","lat":38.884948,"lon":115.564815,"network":"Tesla","power_kw":250,"stall_count":3,"open_date":"2025-11-21","close_date":null,"date_source":"authoritative_install","status":"OPEN","open_to_others":true,"stall_versions":{"v4":3},"plug_types":{"gbt":3},"country":"China","name":"Baoding, China - Future Stone Wanda Plaza"},{"id":"sc:10648","lat":36.88065,"lon":120.502934,"network":"Tesla","power_kw":120,"stall_count":4,"open_date":"2025-11-21","close_date":null,"date_source":"authoritative_install","status":"OPEN","open_to_others":true,"stall_versions":{"v2":4},"plug_types":{"gbt":4},"country":"China","name":"Laixi, China - Wanda Plaza"},{"id":"sc:10650","lat":33.312385,"lon":120.152436,"network":"Tesla","power_kw":250,"stall_count":3,"open_date":"2025-11-21","close_date":null,"date_source":"authoritative_install","status":"OPEN","open_to_others":true,"stall_versions":{"v4":3},"plug_types":{"gbt":3},"country":"China","name":"Yancheng, China - Yandu Wuyue Plaza"},{"id":"sc:3163","lat":22.51756407,"lon":113.9331438,"network":"Tesla","power_kw":250,"stall_count":13,"open_date":"2021-01-22","close_date":null,"date_source":"authoritative_install","status":"OPEN","open_to_others":false,"stall_versions":{"v2":10,"v3":3},"plug_types":{"gbt":13},"country":"China","name":"Shenzhen - Zhongzhou Holding Center. China"},{"id":"sc:3354","lat":-41.18,"lon":146.367384,"network":"Tesla","power_kw":250,"stall_count":3,"open_date":"2021-05-24","close_date":null,"date_source":"authoritative_install","status":"OPEN","open_to_others":false,"stall_versions":{"v3":3},"plug_types":{"ccs2":3},"country":"Australia","name":"Devonport, TAS"},{"id":"sc:4068","lat":31.622081,"lon":-8.001983,"network":"Tesla","power_kw":130,"stall_count":4,"open_date":"2022-02-25","close_date":null,"date_source":"authoritative_install","status":"OPEN","open_to_others":false,"stall_versions":{"v2":4,"accessible":0,"trailerFriendly":0},"plug_types":{"ccs2":4,"type2":4,"multi":4},"country":"Morocco","name":"Marrakech, Morocco"},{"id":"sc:6690","lat":36.977987,"lon":-77.394985,"network":"Tesla","power_kw":250,"stall_count":8,"open_date":"2023-11-10","close_date":null,"date_source":"authoritative_install","status":"OPEN","open_to_others":true,"stall_versions":{"v3":8},"plug_types":{"tpc":0,"nacs":8},"country":"USA","name":"Stony Creek, VA"},{"id":"sc:10665","lat":38.852249,"lon":115.517993,"network":"Tesla","power_kw":250,"stall_count":3,"open_date":"2025-11-21","close_date":null,"date_source":"authoritative_install","status":"OPEN","open_to_others":true,"stall_versions":{"v4":3},"plug_types":{"gbt":3},"country":"China","name":"Baoding, China - Jiade Wanda Plaza"},{"id":"sc:7324","lat":40.680317,"lon":-89.588669,"network":"Tesla","power_kw":250,"stall_count":12,"open_date":"2024-07-12","close_date":null,"date_source":"authoritative_install","status":"OPEN","open_to_others":true,"stall_versions":{"v3":12,"accessible":1},"plug_types":{"nacs":12},"country":"USA","name":"East Peoria, IL"},{"id":"sc:4069","lat":30.391915,"lon":-9.597088,"network":"Tesla","power_kw":130,"stall_count":4,"open_date":"2022-02-25","close_date":null,"date_source":"authoritative_install","status":"OPEN","open_to_others":false,"stall_versions":{"v2":4,"accessible":0,"trailerFriendly":0},"plug_types":{"ccs2":4,"type2":4,"multi":4},"country":"Morocco","name":"Agadir, Morocco"},{"id":"sc:10666","lat":22.675072,"lon":114.031663,"network":"Tesla","power_kw":250,"stall_count":3,"open_date":"2025-11-21","close_date":null,"date_source":"authoritative_install","status":"OPEN","open_to_others":true,"stall_versions":{"v4":3},"plug_types":{"gbt":3},"country":"China","name":"Shenzhen, China - Changtian Science and Technology Park"},{"id":"sc:6708","lat":45.773167,"lon":-111.19886,"network":"Tesla","power_kw":250,"stall_count":8,"open_date":"2023-10-13","close_date":null,"date_source":"authoritative_install","status":"OPEN","open_to_others":true,"stall_versions":{"v3":8},"plug_types":{"tpc":0,"nacs":8},"country":"USA","name":"Belgrade, MT"},{"id":"sc:6724","lat":39.848001,"lon":-85.419441,"network":"Tesla","power_kw":250,"stall_count":8,"open_date":"2023-10-31","close_date":null,"date_source":"authoritative_install","status":"OPEN","open_to_others":true,"stall_versions":{"v3":8,"accessible":1},"plug_types":{"tpc":0,"nacs":8},"country":"USA","name":"Spiceland, IN"},{"id":"sc:5999","lat":41.591965,"lon":-90.462753,"network":"Tesla","power_kw":250,"stall_count":12,"open_date":"2023-05-26","close_date":null,"date_source":"authoritative_install","status":"OPEN","open_to_others":true,"stall_versions":{"v3":12,"accessible":2},"plug_types":{"tpc":0,"nacs":12},"country":"USA","name":"Bettendorf, IA"},{"id":"sc:966","lat":35.660349,"lon":-88.855771,"network":"Tesla","power_kw":250,"stall_count":24,"open_date":"2016-11-30","close_date":null,"date_source":"authoritative_install","status":"OPEN","open_to_others":true,"stall_versions":{"v3":24},"plug_types":{"tpc":0,"nacs":24},"country":"USA","name":"Jackson, TN"},{"id":"sc:2274","lat":40.052622,"lon":-76.254776,"network":"Tesla","power_kw":250,"stall_count":8,"open_date":"2020-03-13","close_date":null,"date_source":"authoritative_install","status":"OPEN","open_to_others":true,"stall_versions":{"v3":8},"plug_types":{"tpc":0,"nacs":8},"country":"USA","name":"Lancaster, PA"},{"id":"sc:10668","lat":47.717175,"lon":128.869752,"network":"Tesla","power_kw":120,"stall_count":2,"open_date":"2025-11-21","close_date":null,"date_source":"authoritative_install","status":"OPEN","open_to_others":true,"stall_versions":{"v2":2},"plug_types":{"gbt":2},"country":"China","name":"Yichun, China - Xinqian Hotel"},{"id":"sc:2265","lat":36.255329,"lon":-94.152637,"network":"Tesla","power_kw":250,"stall_count":8,"open_date":"2020-02-21","close_date":null,"date_source":"authoritative_install","status":"OPEN","open_to_others":true,"stall_versions":{"v3":8},"plug_types":{"tpc":0,"nacs":8},"country":"USA","name":"Lowell, AR"},{"id":"sc:7064","lat":47.03219,"lon":-65.488607,"network":"Tesla","power_kw":250,"stall_count":6,"open_date":"2024-03-28","close_date":null,"date_source":"authoritative_install","status":"OPEN","open_to_others":true,"stall_versions":{"v3":6,"trailerFriendly":0},"plug_types":{"nacs":6},"country":"Canada","name":"Miramichi, NB"},{"id":"sc:10669","lat":30.143631,"lon":119.984204,"network":"Tesla","power_kw":250,"stall_count":4,"open_date":"2025-11-21","close_date":null,"date_source":"authoritative_install","status":"OPEN","open_to_others":true,"stall_versions":{"v4":4},"plug_types":{"gbt":4},"country":"China","name":"Hangzhou, China - Minghe Garden Yinhu Park"},{"id":"sc:6013","lat":29.580958,"lon":-95.391853,"network":"Tesla","power_kw":250,"stall_count":16,"open_date":"2023-09-22","close_date":null,"date_source":"authoritative_install","status":"OPEN","open_to_others":true,"stall_versions":{"v3":16,"accessible":4,"trailerFriendly":0},"plug_types":{"nacs":16,"ccs1":16,"multi":16},"country":"USA","name":"Pearland, TX"},{"id":"sc:2268","lat":39.733697,"lon":-105.154154,"network":"Tesla","power_kw":250,"stall_count":16,"open_date":"2020-03-31","close_date":null,"date_source":"authoritative_install","status":"OPEN","open_to_others":true,"stall_versions":{"v3":16,"accessible":0,"trailerFriendly":0},"plug_types":{"nacs":16},"country":"USA","name":"Lakewood, CO"},{"id":"sc:6041","lat":26.587844,"lon":-80.064215,"network":"Tesla","power_kw":250,"stall_count":12,"open_date":"2024-02-14","close_date":null,"date_source":"authoritative_install","status":"OPEN","open_to_others":true,"stall_versions":{"v3":12,"accessible":1},"plug_types":{"tpc":0,"nacs":12},"country":"USA","name":"Lantana, FL"},{"id":"sc:10653","lat":32.390832,"lon":119.375295,"network":"Tesla","power_kw":250,"stall_count":3,"open_date":"2025-11-21","close_date":null,"date_source":"authoritative_install","status":"OPEN","open_to_others":true,"stall_versions":{"v4":3},"plug_types":{"gbt":3},"country":"China","name":"Yangzhou, China - Hanjiang Changjian Plaza"},{"id":"sc:1437","lat":42.518385,"lon":-71.137254,"network":"Tesla","power_kw":250,"stall_count":12,"open_date":"2021-10-28","close_date":null,"date_source":"authoritative_install","status":"OPEN","open_to_others":true,"stall_versions":{"v3":12},"plug_types":{"tpc":0,"nacs":12},"country":"USA","name":"Woburn, MA"},{"id":"sc:1754","lat":50.442508,"lon":-104.531998,"network":"Tesla","power_kw":250,"stall_count":8,"open_date":"2019-12-13","close_date":null,"date_source":"authoritative_install","status":"OPEN","open_to_others":true,"stall_versions":{"v3":8},"plug_types":{"nacs":8},"country":"Canada","name":"Regina, SK"},{"id":"sc:2397","lat":47.042438,"lon":-122.834327,"network":"Tesla","power_kw":250,"stall_count":12,"open_date":"2020-10-30","close_date":null,"date_source":"authoritative_install","status":"OPEN","open_to_others":true,"stall_versions":{"v3":12},"plug_types":{"nacs":12},"country":"USA","name":"Lacey, WA"},{"id":"sc:880","lat":40.753019,"lon":0.606421,"network":"Tesla","power_kw":250,"stall_count":16,"open_date":"2016-07-05","close_date":null,"date_source":"authoritative_install","status":"OPEN","open_to_others":true,"stall_versions":{"v3":8,"v4":8,"accessible":1,"trailerFriendly":0},"plug_types":{"ccs2":16},"country":"Spain","name":"L'Aldea, Spain"},{"id":"sc:10658","lat":22.542863,"lon":113.970332,"network":"Tesla","power_kw":250,"stall_count":6,"open_date":"2025-11-21","close_date":null,"date_source":"authoritative_install","status":"OPEN","open_to_others":true,"stall_versions":{"v4":6},"plug_types":{"gbt":6},"country":"China","name":"Shenzhen, China - Shahe Ecological Sports Park"},{"id":"sc:10659","lat":22.612866,"lon":113.863063,"network":"Tesla","power_kw":250,"stall_count":6,"open_date":"2025-11-21","close_date":null,"date_source":"authoritative_install","status":"OPEN","open_to_others":true,"stall_versions":{"v4":6},"plug_types":{"gbt":6},"country":"China","name":"Shenzhen, China - Bao'an Sino-German (European) Industrial Demonstration Park"},{"id":"sc:2418","lat":42.180663,"lon":-73.364632,"network":"Tesla","power_kw":250,"stall_count":8,"open_date":"2020-09-26","close_date":null,"date_source":"authoritative_install","status":"OPEN","open_to_others":true,"stall_versions":{"v3":8},"plug_types":{"tpc":0,"nacs":8},"country":"USA","name":"Great Barrington, MA"},{"id":"sc:2308","lat":49.457882,"lon":-120.506224,"network":"Tesla","power_kw":250,"stall_count":8,"open_date":"2020-12-26","close_date":null,"date_source":"authoritative_install","status":"OPEN","open_to_others":true,"stall_versions":{"v3":8},"plug_types":{"tpc":0,"nacs":8},"country":"Canada","name":"Princeton, BC"},{"id":"sc:10661","lat":31.841053,"lon":117.318636,"network":"Tesla","power_kw":250,"stall_count":3,"open_date":"2025-11-21","close_date":null,"date_source":"authoritative_install","status":"OPEN","open_to_others":true,"stall_versions":{"v4":3},"plug_types":{"gbt":3},"country":"China","name":"Hefei, China - Jinyu Tonganhui"},{"id":"sc:2286","lat":42.398547,"lon":-71.00021,"network":"Tesla","power_kw":250,"stall_count":8,"open_date":"2020-04-11","close_date":null,"date_source":"authoritative_install","status":"OPEN","open_to_others":true,"stall_versions":{"v3":8},"plug_types":{"tpc":0,"nacs":8},"country":"USA","name":"Revere, MA"},{"id":"sc:2298","lat":40.526531,"lon":-111.88591,"network":"Tesla","power_kw":250,"stall_count":12,"open_date":"2021-03-10","close_date":null,"date_source":"authoritative_install","status":"OPEN","open_to_others":true,"stall_versions":{"v3":12},"plug_types":{"tpc":0,"nacs":12},"country":"USA","name":"Draper, UT"},{"id":"sc:2284","lat":50.810979,"lon":-121.324945,"network":"Tesla","power_kw":250,"stall_count":8,"open_date":"2021-09-10","close_date":null,"date_source":"authoritative_install","status":"OPEN","open_to_others":true,"stall_versions":{"v3":8},"plug_types":{"tpc":0,"nacs":8},"country":"Canada","name":"Cache Creek, BC"},{"id":"sc:10663","lat":46.094676,"lon":122.034589,"network":"Tesla","power_kw":120,"stall_count":4,"open_date":"2025-11-21","close_date":null,"date_source":"authoritative_install","status":"OPEN","open_to_others":true,"stall_versions":{"v2":4},"plug_types":{"gbt":4},"country":"China","name":"Ulanhot, China - Wanda Plaza"},{"id":"sc:1609","lat":45.750542,"lon":-87.085129,"network":"Tesla","power_kw":250,"stall_count":8,"open_date":"2021-07-31","close_date":null,"date_source":"authoritative_install","status":"OPEN","open_to_others":true,"stall_versions":{"v3":8},"plug_types":{"tpc":0,"nacs":8},"country":"USA","name":"Escanaba, MI"},{"id":"sc:1763","lat":42.447575,"lon":-75.048622,"network":"Tesla","power_kw":250,"stall_count":8,"open_date":"2020-02-07","close_date":null,"date_source":"authoritative_install","status":"OPEN","open_to_others":true,"stall_versions":{"v3":8},"plug_types":{"tpc":0,"nacs":8},"country":"USA","name":"Oneonta, NY"},{"id":"sc:10670","lat":43.849602,"lon":87.54055,"network":"Tesla","power_kw":250,"stall_count":6,"open_date":"2025-11-21","close_date":null,"date_source":"authoritative_install","status":"OPEN","open_to_others":true,"stall_versions":{"v4":6},"plug_types":{"gbt":6},"country":"China","name":"Urumqi, China - Rongsheng Building"},{"id":"sc:1560","lat":46.843601,"lon":-96.882492,"network":"Tesla","power_kw":250,"stall_count":8,"open_date":"2020-05-29","close_date":null,"date_source":"authoritative_install","status":"OPEN","open_to_others":true,"stall_versions":{"v3":8,"accessible":0,"trailerFriendly":0},"plug_types":{"nacs":8},"country":"USA","name":"Fargo, ND"},{"id":"sc:1534","lat":34.024585,"lon":-118.485771,"network":"Tesla","power_kw":250,"stall_count":62,"open_date":"2022-02-18","close_date":null,"date_source":"authoritative_install","status":"OPEN","open_to_others":true,"stall_versions":{"v3":62},"plug_types":{"nacs":62},"country":"USA","name":"Santa Monica, CA"},{"id":"sc:1623","lat":49.649386,"lon":-95.79209,"network":"Tesla","power_kw":250,"stall_count":6,"open_date":"2019-12-20","close_date":null,"date_source":"authoritative_install","status":"OPEN","open_to_others":true,"stall_versions":{"v3":6,"accessible":0,"trailerFriendly":0},"plug_types":{"nacs":6},"country":"Canada","name":"Prawda, MB"},{"id":"sc:1556","lat":49.868034,"lon":-99.960652,"network":"Tesla","power_kw":250,"stall_count":6,"open_date":"2019-12-12","close_date":null,"date_source":"authoritative_install","status":"OPEN","open_to_others":true,"stall_versions":{"v3":6,"accessible":0,"trailerFriendly":0},"plug_types":{"nacs":6},"country":"Canada","name":"Brandon, MB"},{"id":"sc:2405","lat":33.922692,"lon":-116.951989,"network":"Tesla","power_kw":250,"stall_count":20,"open_date":"2020-07-02","close_date":null,"date_source":"authoritative_install","status":"OPEN","open_to_others":true,"stall_versions":{"v3":20},"plug_types":{"tpc":0,"nacs":20},"country":"USA","name":"Beaumont, CA"},{"id":"sc:10349","lat":40.539842,"lon":-74.501967,"network":"Tesla","power_kw":325,"stall_count":12,"open_date":"2026-03-18","close_date":null,"date_source":"authoritative_install","status":"OPEN","open_to_others":true,"stall_versions":{"v4":12,"accessible":1,"trailerFriendly":0},"plug_types":{"nacs":12,"ccs1":12,"multi":12},"country":"USA","name":"Piscataway, NJ"},{"id":"sc:2396","lat":36.850405,"lon":-119.791265,"network":"Tesla","power_kw":250,"stall_count":8,"open_date":"2021-08-12","close_date":null,"date_source":"authoritative_install","status":"OPEN","open_to_others":true,"stall_versions":{"v3":8},"plug_types":{"tpc":0,"nacs":8},"country":"USA","name":"Fresno, CA - North Blackstone Ave"},{"id":"sc:10345","lat":42.720128,"lon":-87.847994,"network":"Tesla","power_kw":325,"stall_count":8,"open_date":"2025-09-24","close_date":null,"date_source":"authoritative_install","status":"OPEN","open_to_others":true,"stall_versions":{"v4":8},"plug_types":{"nacs":8},"country":"USA","name":"Racine, WI"},{"id":"sc:10671","lat":34.201245,"lon":108.956412,"network":"Tesla","power_kw":250,"stall_count":6,"open_date":"2025-11-21","close_date":null,"date_source":"authoritative_install","status":"OPEN","open_to_others":true,"stall_versions":{"v4":6},"plug_types":{"gbt":6},"country":"China","name":"Xi'an, China - MixC"},{"id":"sc:10675","lat":31.85003,"lon":106.786667,"network":"Tesla","power_kw":250,"stall_count":3,"open_date":"2025-11-21","close_date":null,"date_source":"authoritative_install","status":"OPEN","open_to_others":true,"stall_versions":{"v4":3},"plug_types":{"gbt":3},"country":"China","name":"Bazhong, China - Economic Development Zone Wanda Plaza"},{"id":"sc:2417","lat":30.716016,"lon":-85.184269,"network":"Tesla","power_kw":250,"stall_count":8,"open_date":"2021-01-29","close_date":null,"date_source":"authoritative_install","status":"OPEN","open_to_others":true,"stall_versions":{"v3":8},"plug_types":{"tpc":0,"nacs":8},"country":"USA","name":"Marianna, FL"},{"id":"sc:10656","lat":24.559341,"lon":118.053469,"network":"Tesla","power_kw":250,"stall_count":3,"open_date":"2025-11-21","close_date":null,"date_source":"authoritative_install","status":"OPEN","open_to_others":true,"stall_versions":{"v4":3},"plug_types":{"gbt":3},"country":"China","name":"Xiamen, China - Crowne Plaza Xiamen Jimei Seaview Hotel"},{"id":"sc:9401","lat":38.997117,"lon":-76.892224,"network":"Tesla","power_kw":325,"stall_count":12,"open_date":"2025-11-06","close_date":null,"date_source":"authoritative_install","status":"OPEN","open_to_others":true,"stall_versions":{"v4":12,"accessible":1},"plug_types":{"nacs":12},"country":"USA","name":"Greenbelt, MD"},{"id":"sc:10678","lat":41.004911,"lon":113.162204,"network":"Tesla","power_kw":120,"stall_count":6,"open_date":"2025-11-21","close_date":null,"date_source":"authoritative_install","status":"OPEN","open_to_others":true,"stall_versions":{"v2":6},"plug_types":{"gbt":6},"country":"China","name":"Ulanqab, China - Wanda Plaza"},{"id":"sc:10667","lat":28.742136,"lon":120.620907,"network":"Tesla","power_kw":250,"stall_count":3,"open_date":"2025-11-21","close_date":null,"date_source":"authoritative_install","status":"OPEN","open_to_others":true,"stall_versions":{"v4":3},"plug_types":{"gbt":3},"country":"China","name":"Taizhou, China - DoubleTree by Hilton Taizhou Shenxianju Hotel"},{"id":"sc:288","lat":52.532094,"lon":6.156868,"network":"Tesla","power_kw":250,"stall_count":24,"open_date":"2014-08-21","close_date":null,"date_source":"authoritative_install","status":"OPEN","open_to_others":true,"stall_versions":{"v2":16,"v3":8,"accessible":0,"trailerFriendly":4},"plug_types":{"ccs2":24,"type2":16,"multi":16},"country":"Netherlands","name":"Zwolle, Netherlands"},{"id":"sc:10660","lat":31.75461,"lon":116.548362,"network":"Tesla","power_kw":250,"stall_count":3,"open_date":"2025-11-21","close_date":null,"date_source":"authoritative_install","status":"OPEN","open_to_others":true,"stall_versions":{"v4":3},"plug_types":{"gbt":3},"country":"China","name":"Lu'an, China - Hilton Garden Inn"},{"id":"sc:146","lat":40.508497,"lon":-88.985575,"network":"Tesla","power_kw":150,"stall_count":8,"open_date":"2013-06-26","close_date":null,"date_source":"authoritative_install","status":"OPEN","open_to_others":false,"stall_versions":{"v2":8},"plug_types":{"tpc":8},"country":"USA","name":"Normal, IL"},{"id":"sc:6203","lat":31.18021115,"lon":121.5631498,"network":"Tesla","power_kw":250,"stall_count":6,"open_date":null,"close_date":null,"date_source":"authoritative_install","status":"CLOSED_TEMP","open_to_others":false,"stall_versions":{"v3":6},"plug_types":{"gbt":6},"country":"China","name":"Shanghai, China - New Dragon Elephant Hotel"},{"id":"sc:7915","lat":33.182005,"lon":-117.342686,"network":"Tesla","power_kw":325,"stall_count":24,"open_date":"2025-11-20","close_date":null,"date_source":"authoritative_install","status":"OPEN","open_to_others":true,"stall_versions":{"v4":24,"accessible":1},"plug_types":{"nacs":24},"country":"USA","name":"Oceanside, CA - Vista Way"},{"id":"sc:4601","lat":25.085035,"lon":102.735826,"network":"Tesla","power_kw":250,"stall_count":5,"open_date":"2022-09-10","close_date":null,"date_source":"authoritative_install","status":"OPEN","open_to_others":true,"stall_versions":{"v2":2,"v3":3},"plug_types":{"gbt":5},"country":"China","name":"Kunming, China - Beichen Tesla Center"},{"id":"sc:4588","lat":36.0859827,"lon":120.412308,"network":"Tesla","power_kw":250,"stall_count":10,"open_date":"2021-01-22","close_date":null,"date_source":"authoritative_install","status":"OPEN","open_to_others":true,"stall_versions":{"v2":4,"v3":6},"plug_types":{"gbt":10},"country":"China","name":"Qingdao, China - Yinchuan West Road Tesla Center"},{"id":"sc:2290","lat":44.025597,"lon":-116.942114,"network":"Tesla","power_kw":250,"stall_count":8,"open_date":"2020-09-03","close_date":null,"date_source":"authoritative_install","status":"OPEN","open_to_others":true,"stall_versions":{"v3":8},"plug_types":{"tpc":0,"nacs":8},"country":"USA","name":"Ontario, OR"},{"id":"sc:3516","lat":38.325462,"lon":21.868369,"network":"Tesla","power_kw":250,"stall_count":4,"open_date":"2021-09-21","close_date":null,"date_source":"authoritative_install","status":"OPEN","open_to_others":false,"stall_versions":{"v3":4,"accessible":0,"trailerFriendly":0},"plug_types":{"ccs2":4},"country":"Greece","name":"Psathopyrgos, Greece - North"},{"id":"sc:9407","lat":41.360848,"lon":-81.686812,"network":"Tesla","power_kw":325,"stall_count":12,"open_date":"2025-03-18","close_date":null,"date_source":"authoritative_install","status":"OPEN","open_to_others":true,"stall_versions":{"v4":12},"plug_types":{"nacs":12},"country":"USA","name":"Parma, OH"},{"id":"sc:3442","lat":40.906902,"lon":9.515853,"network":"Tesla","power_kw":250,"stall_count":12,"open_date":"2021-06-26","close_date":null,"date_source":"authoritative_install","status":"OPEN","open_to_others":true,"stall_versions":{"v3":4,"v4":8,"accessible":0,"trailerFriendly":0},"plug_types":{"ccs2":12},"country":"Italy","name":"Olbia, Italy"},{"id":"sc:3383","lat":69.47193,"lon":25.509494,"network":"Tesla","power_kw":250,"stall_count":4,"open_date":"2021-10-12","close_date":null,"date_source":"authoritative_install","status":"OPEN","open_to_others":true,"stall_versions":{"v3":4,"accessible":0,"trailerFriendly":2},"plug_types":{"ccs2":4},"country":"Norway","name":"Karasjok, Norway"},{"id":"sc:4431","lat":50.028017,"lon":19.950902,"network":"Tesla","power_kw":250,"stall_count":16,"open_date":"2022-07-10","close_date":null,"date_source":"authoritative_install","status":"OPEN","open_to_others":true,"stall_versions":{"v3":16,"accessible":0,"trailerFriendly":0},"plug_types":{"ccs2":16},"country":"Poland","name":"Krak\u00f3w, Poland"},{"id":"sc:3517","lat":38.324403,"lon":21.869205,"network":"Tesla","power_kw":250,"stall_count":4,"open_date":"2021-09-22","close_date":null,"date_source":"authoritative_install","status":"OPEN","open_to_others":false,"stall_versions":{"v3":4,"accessible":0,"trailerFriendly":0},"plug_types":{"ccs2":4},"country":"Greece","name":"Psathopyrgos, Greece - South"},{"id":"sc:789","lat":49.647975,"lon":5.818863,"network":"Tesla","power_kw":250,"stall_count":32,"open_date":"2016-12-22","close_date":null,"date_source":"authoritative_install","status":"OPEN","open_to_others":true,"stall_versions":{"v3":16,"v4":16},"plug_types":{"ccs2":32},"country":"Belgium","name":"Arlon, Belgium"},{"id":"sc:226","lat":58.155615,"lon":7.10279,"network":"Tesla","power_kw":250,"stall_count":44,"open_date":"2013-08-30","close_date":null,"date_source":"authoritative_install","status":"OPEN","open_to_others":true,"stall_versions":{"v2":20,"v3":16,"v4":8},"plug_types":{"ccs2":44,"type2":20,"multi":20},"country":"Norway","name":"Lyngdal Handelspark, Norway"},{"id":"sc:4900","lat":33.36572908,"lon":104.9523149,"network":"Tesla","power_kw":250,"stall_count":3,"open_date":"2022-09-22","close_date":null,"date_source":"authoritative_install","status":"OPEN","open_to_others":false,"stall_versions":{"v3":3},"plug_types":{"gbt":3},"country":"China","name":"Longnan, China - Mingyu Heuer Hotel"},{"id":"sc:2657","lat":48.407779,"lon":10.599473,"network":"Tesla","power_kw":250,"stall_count":12,"open_date":"2021-05-02","close_date":null,"date_source":"authoritative_install","status":"OPEN","open_to_others":true,"stall_versions":{"v3":12,"accessible":0,"trailerFriendly":0},"plug_types":{"ccs2":12},"country":"Germany","name":"Zusmarshausen, Germany"},{"id":"sc:3617","lat":56.514664,"lon":27.350934,"network":"Tesla","power_kw":150,"stall_count":4,"open_date":"2022-06-22","close_date":null,"date_source":"authoritative_install","status":"OPEN","open_to_others":false,"stall_versions":{"v2":4,"accessible":0,"trailerFriendly":0},"plug_types":{"ccs2":4,"type2":4,"multi":4},"country":"Latvia","name":"Rezekne, Latvia"},{"id":"sc:3782","lat":-38.234339,"lon":145.050999,"network":"Tesla","power_kw":250,"stall_count":6,"open_date":"2021-12-14","close_date":null,"date_source":"authoritative_install","status":"OPEN","open_to_others":true,"stall_versions":{"v3":6},"plug_types":{"ccs2":6},"country":"Australia","name":"Mornington, VIC"},{"id":"sc:10672","lat":48.465942,"lon":129.556326,"network":"Tesla","power_kw":120,"stall_count":2,"open_date":"2025-11-21","close_date":null,"date_source":"authoritative_install","status":"OPEN","open_to_others":true,"stall_versions":{"v2":2},"plug_types":{"gbt":2},"country":"China","name":"Yichun, China - Jiuxin Mountain Delicacies Resort"},{"id":"sc:10674","lat":41.715916,"lon":123.438111,"network":"Tesla","power_kw":250,"stall_count":3,"open_date":"2025-11-21","close_date":null,"date_source":"authoritative_install","status":"OPEN","open_to_others":true,"stall_versions":{"v4":3},"plug_types":{"gbt":3},"country":"China","name":"Shenyang, China - Shenyang Grain Depot Cultural and Creative Industrial Park"},{"id":"sc:7586","lat":35.373124,"lon":-83.210715,"network":"Tesla","power_kw":250,"stall_count":8,"open_date":"2024-03-12","close_date":null,"date_source":"authoritative_install","status":"OPEN","open_to_others":true,"stall_versions":{"v3":8,"accessible":1},"plug_types":{"tpc":0,"nacs":8},"country":"USA","name":"Sylva, NC"},{"id":"sc:2399","lat":57.110252,"lon":-2.092611,"network":"Tesla","power_kw":250,"stall_count":8,"open_date":"2020-12-10","close_date":null,"date_source":"authoritative_install","status":"OPEN","open_to_others":true,"stall_versions":{"v3":8,"trailerFriendly":0},"plug_types":{"ccs2":8},"country":"United Kingdom","name":"Aberdeen (SC), UK"},{"id":"sc:4985","lat":47.34198957,"lon":123.9697915,"network":"Tesla","power_kw":120,"stall_count":2,"open_date":"2022-09-22","close_date":null,"date_source":"authoritative_install","status":"OPEN","open_to_others":true,"stall_versions":{"v2":2},"plug_types":{"gbt":2},"country":"China","name":"Qiqihar, China - Hemei International Hotel"},{"id":"sc:10673","lat":29.120402,"lon":110.487334,"network":"Tesla","power_kw":250,"stall_count":3,"open_date":"2025-11-21","close_date":null,"date_source":"authoritative_install","status":"OPEN","open_to_others":true,"stall_versions":{"v4":3},"plug_types":{"gbt":3},"country":"China","name":"Zhangjiajie, China - Huatian Hotel"},{"id":"sc:10664","lat":23.103913,"lon":113.556884,"network":"Tesla","power_kw":250,"stall_count":3,"open_date":"2025-11-21","close_date":null,"date_source":"authoritative_install","status":"OPEN","open_to_others":true,"stall_versions":{"v4":3},"plug_types":{"gbt":3},"country":"China","name":"Guangzhou, China - Wanda Plaza (Guangzhou Nangang)"},{"id":"sc:7961","lat":30.893737,"lon":103.589827,"network":"Tesla","power_kw":250,"stall_count":3,"open_date":"2024-04-25","close_date":null,"date_source":"authoritative_install","status":"OPEN","open_to_others":false,"stall_versions":{"v3":3},"plug_types":{"gbt":3},"country":"China","name":"Chengdu, China - Qingcheng Mountain Huajiantang"},{"id":"sc:2293","lat":42.459333,"lon":-92.328806,"network":"Tesla","power_kw":250,"stall_count":8,"open_date":"2021-05-18","close_date":null,"date_source":"authoritative_install","status":"OPEN","open_to_others":true,"stall_versions":{"v3":8},"plug_types":{"tpc":0,"nacs":8},"country":"USA","name":"Waterloo, IA"},{"id":"sc:2109","lat":-36.774586,"lon":144.306418,"network":"Tesla","power_kw":125,"stall_count":6,"open_date":"2019-10-01","close_date":null,"date_source":"authoritative_install","status":"OPEN","open_to_others":true,"stall_versions":{"v2":6},"plug_types":{"ccs2":6,"type2":6,"multi":6},"country":"Australia","name":"Bendigo, VIC"},{"id":"sc:5059","lat":30.025033,"lon":101.536743,"network":"Tesla","power_kw":120,"stall_count":2,"open_date":"2022-09-22","close_date":null,"date_source":"authoritative_install","status":"OPEN","open_to_others":true,"stall_versions":{"v2":2},"plug_types":{"gbt":2},"country":"China","name":"Xinduqiao, China - Heiqing Barley Manor"},{"id":"sc:7775","lat":50.223525,"lon":11.052558,"network":"Tesla","power_kw":250,"stall_count":8,"open_date":"2024-11-26","close_date":null,"date_source":"authoritative_install","status":"OPEN","open_to_others":true,"stall_versions":{"v4":8},"plug_types":{"ccs2":8},"country":"Germany","name":"Ebersdorf bei Coburg, Germany"},{"id":"sc:4695","lat":37.503356,"lon":122.117929,"network":"Tesla","power_kw":120,"stall_count":6,"open_date":"2022-09-14","close_date":null,"date_source":"authoritative_install","status":"OPEN","open_to_others":true,"stall_versions":{"v2":6},"plug_types":{"gbt":6},"country":"China","name":"Weihai, China - Weigao Plaza"},{"id":"sc:611","lat":36.860525,"lon":-76.207467,"network":"Tesla","power_kw":150,"stall_count":6,"open_date":"2015-10-18","close_date":null,"date_source":"authoritative_install","status":"OPEN","open_to_others":false,"stall_versions":{"v2":6},"plug_types":{"tpc":6},"country":"USA","name":"Norfolk, VA"},{"id":"sc:3981","lat":41.700046,"lon":-92.726636,"network":"Tesla","power_kw":250,"stall_count":8,"open_date":"2022-05-19","close_date":null,"date_source":"authoritative_install","status":"OPEN","open_to_others":true,"stall_versions":{"v3":8,"accessible":0,"trailerFriendly":0},"plug_types":{"nacs":8},"country":"USA","name":"Grinnell, IA"},{"id":"sc:4025","lat":48.706997,"lon":9.306412,"network":"Tesla","power_kw":250,"stall_count":12,"open_date":"2022-03-30","close_date":null,"date_source":"authoritative_install","status":"OPEN","open_to_others":true,"stall_versions":{"v3":12,"accessible":0,"trailerFriendly":0},"plug_types":{"ccs2":12},"country":"Germany","name":"Denkendorf, Germany"},{"id":"sc:4675","lat":29.592913,"lon":103.739998,"network":"Tesla","power_kw":120,"stall_count":6,"open_date":"2022-09-13","close_date":null,"date_source":"authoritative_install","status":"OPEN","open_to_others":true,"stall_versions":{"v2":6},"plug_types":{"gbt":6},"country":"China","name":"Leshan, China - Vienna International Hotel"},{"id":"sc:1340","lat":17.51465,"lon":-99.482779,"network":"Tesla","power_kw":150,"stall_count":6,"open_date":"2017-10-16","close_date":null,"date_source":"authoritative_install","status":"OPEN","open_to_others":false,"stall_versions":{"v2":6,"accessible":0,"trailerFriendly":0},"plug_types":{"tpc":6},"country":"Mexico","name":"Chilpancingo de los Bravo, Mexico"},{"id":"sc:3122","lat":19.1071,"lon":108.683,"network":"Tesla","power_kw":120,"stall_count":4,"open_date":"2021-01-22","close_date":null,"date_source":"authoritative_install","status":"OPEN","open_to_others":false,"stall_versions":{"v2":4},"plug_types":{"gbt":4},"country":"China","name":"Dongfang, China - Oriental Aoyue Licheng Hotel"},{"id":"sc:1778","lat":48.783012,"lon":-87.099954,"network":"Tesla","power_kw":250,"stall_count":6,"open_date":"2019-12-20","close_date":null,"date_source":"authoritative_install","status":"OPEN","open_to_others":true,"stall_versions":{"v3":6,"accessible":0,"trailerFriendly":0},"plug_types":{"nacs":6},"country":"Canada","name":"Terrace Bay, ON"},{"id":"sc:2037","lat":31.866293,"lon":-116.662168,"network":"Tesla","power_kw":150,"stall_count":6,"open_date":"2019-07-07","close_date":null,"date_source":"authoritative_install","status":"OPEN","open_to_others":false,"stall_versions":{"v2":6,"accessible":0,"trailerFriendly":0},"plug_types":{"tpc":6},"country":"Mexico","name":"Ensenada, Mexico"},{"id":"sc:7795","lat":52.853267,"lon":9.702229,"network":"Tesla","power_kw":130,"stall_count":4,"open_date":null,"close_date":null,"date_source":"authoritative_install","status":"CLOSED_PERM","open_to_others":false,"stall_versions":{"v2":4,"accessible":0,"trailerFriendly":2},"plug_types":{"type2":4},"country":"Germany","name":"Bad Fallingbostel, Germany (old)"},{"id":"sc:1781","lat":49.017631,"lon":-88.307529,"network":"Tesla","power_kw":250,"stall_count":6,"open_date":"2019-12-20","close_date":null,"date_source":"authoritative_install","status":"OPEN","open_to_others":true,"stall_versions":{"v3":6,"accessible":0,"trailerFriendly":0},"plug_types":{"nacs":6},"country":"Canada","name":"Nipigon, ON"},{"id":"sc:1782","lat":49.416281,"lon":-91.660236,"network":"Tesla","power_kw":250,"stall_count":6,"open_date":"2019-12-20","close_date":null,"date_source":"authoritative_install","status":"OPEN","open_to_others":true,"stall_versions":{"v3":6,"accessible":0,"trailerFriendly":0},"plug_types":{"nacs":6},"country":"Canada","name":"Ignace, ON"},{"id":"sc:10350","lat":40.588548,"lon":-74.227019,"network":"Tesla","power_kw":325,"stall_count":20,"open_date":"2025-10-30","close_date":null,"date_source":"authoritative_install","status":"OPEN","open_to_others":true,"stall_versions":{"v4":20},"plug_types":{"nacs":20,"ccs1":20,"multi":20},"country":"USA","name":"Carteret, NJ"},{"id":"sc:7776","lat":32.38749,"lon":119.377676,"network":"Tesla","power_kw":250,"stall_count":3,"open_date":"2024-03-25","close_date":null,"date_source":"authoritative_install","status":"OPEN","open_to_others":false,"stall_versions":{"v3":3},"plug_types":{"gbt":3},"country":"China","name":"Yangzhou, China - Colorful World Life Plaza"},{"id":"sc:10791","lat":31.971589,"lon":118.811515,"network":"Tesla","power_kw":250,"stall_count":3,"open_date":"2025-12-04","close_date":null,"date_source":"authoritative_install","status":"OPEN","open_to_others":true,"stall_versions":{"v4":3},"plug_types":{"gbt":3},"country":"China","name":"Nanjing, China -  Nanjing Himalayas Holiday Inn"},{"id":"sc:10792","lat":36.478221,"lon":102.413584,"network":"Tesla","power_kw":120,"stall_count":2,"open_date":"2025-12-04","close_date":null,"date_source":"authoritative_install","status":"OPEN","open_to_others":true,"stall_versions":{"v2":2},"plug_types":{"gbt":2},"country":"China","name":"Haidong, China - Fairfield by Marriott"},{"id":"sc:10676","lat":33.947236,"lon":118.326719,"network":"Tesla","power_kw":250,"stall_count":3,"open_date":"2025-11-21","close_date":null,"date_source":"authoritative_install","status":"OPEN","open_to_others":true,"stall_versions":{"v4":3},"plug_types":{"gbt":3},"country":"China","name":"Suqian, China - Suyu Wanda Plaza"},{"id":"sc:5236","lat":23.043919,"lon":113.782555,"network":"Tesla","power_kw":250,"stall_count":6,"open_date":"2022-09-22","close_date":null,"date_source":"authoritative_install","status":"OPEN","open_to_others":false,"stall_versions":{"v3":6},"plug_types":{"gbt":6},"country":"China","name":"Dongguan, China - Guancheng Yingfeng Home Plaza"},{"id":"sc:5472","lat":36.837402,"lon":-76.306478,"network":"Tesla","power_kw":250,"stall_count":8,"open_date":"2023-03-16","close_date":null,"date_source":"authoritative_install","status":"OPEN","open_to_others":true,"stall_versions":{"v3":8},"plug_types":{"tpc":0,"nacs":8},"country":"USA","name":"Portsmouth, VA"},{"id":"sc:10794","lat":32.051644,"lon":120.883018,"network":"Tesla","power_kw":250,"stall_count":3,"open_date":"2025-12-04","close_date":null,"date_source":"authoritative_install","status":"OPEN","open_to_others":true,"stall_versions":{"v4":3},"plug_types":{"gbt":3},"country":"China","name":"Nantong, China - Beiyi Jiujiu Plaza"},{"id":"sc:259","lat":56.931798,"lon":12.518836,"network":"Tesla","power_kw":250,"stall_count":12,"open_date":"2014-07-18","close_date":null,"date_source":"authoritative_install","status":"OPEN","open_to_others":true,"stall_versions":{"v4":12,"accessible":1,"trailerFriendly":0},"plug_types":{"ccs2":12},"country":"Sweden","name":"Falkenberg, Sweden"},{"id":"sc:2321","lat":43.665802,"lon":-73.784266,"network":"Tesla","power_kw":250,"stall_count":6,"open_date":"2020-03-05","close_date":null,"date_source":"authoritative_install","status":"OPEN","open_to_others":true,"stall_versions":{"v3":6},"plug_types":{"tpc":0,"nacs":6},"country":"USA","name":"Chestertown, NY"},{"id":"sc:7772","lat":37.672618,"lon":-112.157001,"network":"Tesla","power_kw":325,"stall_count":8,"open_date":"2025-07-18","close_date":null,"date_source":"authoritative_install","status":"OPEN","open_to_others":true,"stall_versions":{"v4":8,"accessible":1,"trailerFriendly":0},"plug_types":{"nacs":8},"country":"USA","name":"Bryce Canyon City, UT"},{"id":"sc:10368","lat":60.145006,"lon":10.248761,"network":"Tesla","power_kw":250,"stall_count":8,"open_date":"2026-03-26","close_date":null,"date_source":"authoritative_install","status":"OPEN","open_to_others":true,"stall_versions":{"v4":8},"plug_types":{"ccs2":8},"country":"Norway","name":"H\u00f8nefoss, Norway"},{"id":"sc:10790","lat":39.824487,"lon":118.12348,"network":"Tesla","power_kw":250,"stall_count":3,"open_date":"2025-12-04","close_date":null,"date_source":"authoritative_install","status":"OPEN","open_to_others":true,"stall_versions":{"v4":3},"plug_types":{"gbt":3},"country":"China","name":"Tangshan, China - Fengrun Wanda Plaza"},{"id":"sc:2327","lat":35.136408,"lon":-120.628662,"network":"Tesla","power_kw":250,"stall_count":12,"open_date":"2020-06-08","close_date":null,"date_source":"authoritative_install","status":"OPEN","open_to_others":true,"stall_versions":{"v3":12},"plug_types":{"tpc":0,"nacs":12},"country":"USA","name":"Pismo Beach, CA"},{"id":"sc:6020","lat":40.459873,"lon":-74.455582,"network":"Tesla","power_kw":250,"stall_count":12,"open_date":"2023-08-31","close_date":null,"date_source":"authoritative_install","status":"OPEN","open_to_others":true,"stall_versions":{"v3":12},"plug_types":{"nacs":12,"ccs1":12,"multi":12},"country":"USA","name":"North Brunswick Township, NJ"},{"id":"sc:2310","lat":39.567218,"lon":-104.877928,"network":"Tesla","power_kw":250,"stall_count":12,"open_date":"2020-06-14","close_date":null,"date_source":"authoritative_install","status":"OPEN","open_to_others":true,"stall_versions":{"v3":12,"accessible":0,"trailerFriendly":0},"plug_types":{"nacs":12},"country":"USA","name":"Centennial, CO"},{"id":"sc:5694","lat":31.38279424,"lon":119.7845595,"network":"Tesla","power_kw":250,"stall_count":3,"open_date":"2022-12-26","close_date":null,"date_source":"authoritative_install","status":"OPEN","open_to_others":false,"stall_versions":{"v3":3},"plug_types":{"gbt":3},"country":"China","name":"Yixing, China - Rongda Tesla Center"},{"id":"sc:7779","lat":53.578254,"lon":10.1932455,"network":"Tesla","power_kw":250,"stall_count":8,"open_date":"2024-03-26","close_date":null,"date_source":"authoritative_install","status":"OPEN","open_to_others":true,"stall_versions":{"v4":8,"accessible":0,"trailerFriendly":0},"plug_types":{"ccs2":8},"country":"Germany","name":"Barsb\u00fcttel, Germany"},{"id":"sc:10789","lat":-24.9896,"lon":151.95332,"network":"Tesla","power_kw":250,"stall_count":6,"open_date":"2025-12-15","close_date":null,"date_source":"authoritative_install","status":"OPEN","open_to_others":true,"stall_versions":{"v4":6},"plug_types":{"ccs2":6},"country":"Australia","name":"Gin Gin, QLD"},{"id":"sc:10795","lat":42.259573,"lon":118.92238,"network":"Tesla","power_kw":120,"stall_count":4,"open_date":"2025-12-04","close_date":null,"date_source":"authoritative_install","status":"OPEN","open_to_others":true,"stall_versions":{"v2":4},"plug_types":{"gbt":4},"country":"China","name":"Chifeng, China - Hongshan Wanda Plaza"},{"id":"sc:843","lat":41.598857,"lon":-93.806331,"network":"Tesla","power_kw":325,"stall_count":20,"open_date":"2016-10-21","close_date":null,"date_source":"authoritative_install","status":"OPEN","open_to_others":false,"stall_versions":{"v2":8,"v4":12,"accessible":1,"trailerFriendly":0},"plug_types":{"tpc":20},"country":"USA","name":"West Des Moines, IA"},{"id":"sc:7797","lat":33.852378,"lon":-84.207439,"network":"Tesla","power_kw":250,"stall_count":12,"open_date":"2024-04-15","close_date":null,"date_source":"authoritative_install","status":"OPEN","open_to_others":true,"stall_versions":{"v3":12,"accessible":1},"plug_types":{"tpc":0,"nacs":12},"country":"USA","name":"Tucker, GA"},{"id":"sc:7784","lat":36.070093,"lon":-79.499444,"network":"Tesla","power_kw":250,"stall_count":20,"open_date":"2024-04-09","close_date":null,"date_source":"authoritative_install","status":"OPEN","open_to_others":true,"stall_versions":{"v3":20,"accessible":1,"trailerFriendly":1},"plug_types":{"tpc":0,"nacs":20},"country":"USA","name":"Burlington, NC - Garden Rd"},{"id":"sc:2330","lat":28.9498974,"lon":-81.2508045,"network":"Tesla","power_kw":250,"stall_count":8,"open_date":"2020-04-25","close_date":null,"date_source":"authoritative_install","status":"OPEN","open_to_others":true,"stall_versions":{"v3":8},"plug_types":{"tpc":0,"nacs":8},"country":"USA","name":"Deltona, FL"},{"id":"sc:9409","lat":39.499283,"lon":-84.344317,"network":"Tesla","power_kw":325,"stall_count":8,"open_date":"2026-02-25","close_date":null,"date_source":"authoritative_install","status":"OPEN","open_to_others":true,"stall_versions":{"v4":8,"accessible":1,"trailerFriendly":0},"plug_types":{"nacs":8},"country":"USA","name":"Middletown, OH"},{"id":"sc:4643","lat":29.57907,"lon":106.4475,"network":"Tesla","power_kw":120,"stall_count":8,"open_date":"2022-09-12","close_date":null,"date_source":"authoritative_install","status":"OPEN","open_to_others":true,"stall_versions":{"v2":8},"plug_types":{"gbt":8},"country":"China","name":"Chongqing, China - Ciqikou Backstreet"},{"id":"sc:4759","lat":37.3804411,"lon":117.993779,"network":"Tesla","power_kw":120,"stall_count":6,"open_date":"2022-09-20","close_date":null,"date_source":"authoritative_install","status":"OPEN","open_to_others":true,"stall_versions":{"v2":6},"plug_types":{"gbt":6},"country":"China","name":"Binzhou, China - Ginza Home Furnishing"},{"id":"sc:7800","lat":35.426343,"lon":139.666617,"network":"Tesla","power_kw":250,"stall_count":4,"open_date":"2024-03-26","close_date":null,"date_source":"authoritative_install","status":"OPEN","open_to_others":false,"stall_versions":{"v3":4},"plug_types":{"tpc":4},"country":"Japan","name":"Yokohama, Japan - Honmoku"},{"id":"sc:10681","lat":31.586683,"lon":120.304766,"network":"Tesla","power_kw":250,"stall_count":3,"open_date":"2025-11-24","close_date":null,"date_source":"authoritative_install","status":"OPEN","open_to_others":true,"stall_versions":{"v4":3},"plug_types":{"gbt":3},"country":"China","name":"Wuxi, China - Hongdou Wanhua City (International Plaza)"},{"id":"sc:6640","lat":22.508432,"lon":113.425667,"network":"Tesla","power_kw":250,"stall_count":3,"open_date":"2023-07-19","close_date":null,"date_source":"authoritative_install","status":"OPEN","open_to_others":false,"stall_versions":{"v3":3},"plug_types":{"gbt":3},"country":"China","name":"Zhongshan, China - Daxin Metropolis (Ocean Store)"},{"id":"sc:10689","lat":22.641384,"lon":110.187877,"network":"Tesla","power_kw":250,"stall_count":3,"open_date":"2025-11-26","close_date":null,"date_source":"authoritative_install","status":"OPEN","open_to_others":true,"stall_versions":{"v4":3},"plug_types":{"gbt":3},"country":"China","name":"Yulin, China - Yuzhou Wanda Plaza"},{"id":"sc:3904","lat":49.84,"lon":8.14368,"network":"Tesla","power_kw":250,"stall_count":8,"open_date":"2022-03-31","close_date":null,"date_source":"authoritative_install","status":"OPEN","open_to_others":true,"stall_versions":{"v3":8,"accessible":0,"trailerFriendly":0},"plug_types":{"ccs2":8},"country":"Germany","name":"W\u00f6rrstadt, Germany"},{"id":"sc:5184","lat":23.10754,"lon":113.488361,"network":"Tesla","power_kw":250,"stall_count":6,"open_date":"2022-09-22","close_date":null,"date_source":"authoritative_install","status":"OPEN","open_to_others":false,"stall_versions":{"v3":6},"plug_types":{"gbt":6},"country":"China","name":"Guangzhou, China - Hampton by Hilton Wenchong"},{"id":"sc:8229","lat":30.210532,"lon":-97.666642,"network":"Tesla","power_kw":325,"stall_count":20,"open_date":"2025-11-22","close_date":null,"date_source":"authoritative_install","status":"OPEN","open_to_others":true,"stall_versions":{"v4":20,"accessible":1,"trailerFriendly":0},"plug_types":{"nacs":20},"country":"USA","name":"Austin, TX - Spirit of Texas Dr"},{"id":"sc:1337","lat":38.760227,"lon":-78.63121,"network":"Tesla","power_kw":150,"stall_count":8,"open_date":"2017-12-05","close_date":null,"date_source":"authoritative_install","status":"OPEN","open_to_others":false,"stall_versions":{"v2":8},"plug_types":{"tpc":8},"country":"USA","name":"Mt. Jackson, VA"},{"id":"sc:1815","lat":38.1334859,"lon":-79.0434692,"network":"Tesla","power_kw":150,"stall_count":8,"open_date":"2019-01-31","close_date":null,"date_source":"authoritative_install","status":"OPEN","open_to_others":false,"stall_versions":{"v2":8},"plug_types":{"tpc":8},"country":"USA","name":"Staunton, VA"},{"id":"sc:1992","lat":-33.3101,"lon":151.420682,"network":"Tesla","power_kw":130,"stall_count":6,"open_date":"2019-06-15","close_date":null,"date_source":"authoritative_install","status":"OPEN","open_to_others":false,"stall_versions":{"v2":6},"plug_types":{"ccs2":6,"type2":6,"multi":6},"country":"Australia","name":"Central Coast, NSW"},{"id":"sc:980","lat":53.630562,"lon":-2.692578,"network":"Tesla","power_kw":150,"stall_count":12,"open_date":"2016-12-24","close_date":null,"date_source":"authoritative_install","status":"OPEN","open_to_others":false,"stall_versions":{"v2":12},"plug_types":{"ccs2":12,"type2":12,"multi":12},"country":"United Kingdom","name":"Charnock Richard, UK - Northbound"},{"id":"sc:7802","lat":53.287483,"lon":9.508043,"network":"Tesla","power_kw":250,"stall_count":8,"open_date":"2024-05-28","close_date":null,"date_source":"authoritative_install","status":"OPEN","open_to_others":true,"stall_versions":{"v4":8,"accessible":0,"trailerFriendly":0},"plug_types":{"ccs2":8},"country":"Germany","name":"Sittensen, Germany"},{"id":"sc:9747","lat":33.037711,"lon":-96.707066,"network":"Tesla","power_kw":325,"stall_count":16,"open_date":"2025-11-25","close_date":null,"date_source":"authoritative_install","status":"OPEN","open_to_others":true,"stall_versions":{"v4":16,"accessible":1,"trailerFriendly":1},"plug_types":{"nacs":16},"country":"USA","name":"Plano, TX - W Parker Rd"},{"id":"sc:9587","lat":38.648802,"lon":-121.164568,"network":"Tesla","power_kw":325,"stall_count":12,"open_date":"2025-11-21","close_date":null,"date_source":"authoritative_install","status":"OPEN","open_to_others":true,"stall_versions":{"v4":12,"accessible":1},"plug_types":{"nacs":12},"country":"USA","name":"Folsom, CA - Prairie City Rd"},{"id":"sc:1909","lat":-33.419063,"lon":149.586679,"network":"Tesla","power_kw":130,"stall_count":6,"open_date":"2019-04-01","close_date":null,"date_source":"authoritative_install","status":"OPEN","open_to_others":true,"stall_versions":{"v2":6},"plug_types":{"ccs2":6,"type2":6,"multi":6},"country":"Australia","name":"Bathurst, NSW"},{"id":"sc:7803","lat":-31.953357,"lon":115.83908,"network":"Tesla","power_kw":250,"stall_count":6,"open_date":"2024-12-20","close_date":null,"date_source":"authoritative_install","status":"OPEN","open_to_others":true,"stall_versions":{"v3":6},"plug_types":{"ccs2":6},"country":"Australia","name":"Kings Park, WA, Australia"},