{"meta":{"generated_at":"2026-05-07T16:16:42.053221+00:00","source":"Natural Earth 10m Admin 0 countries plus V2 generated data availability","country_count":236,"with_station_data":53,"with_ev_stock_data":28,"skipped_no_iso":22,"skipped_no_bbox":0},"countries":[{"iso_a3":"AFG","name":"Afghanistan","name_short":"Afghanistan","continent":"Asia","region_un":"Asia","subregion":"Southern Asia","bbox":[60.486778,29.386605,74.892307,38.473673],"center":{"lon":67.6895425,"lat":33.930139},"station_count":0,"dc_fast_count":0,"ultra_count":0,"has_station_data":false,"has_ev_stock_data":false,"ev_stock_year_min":null,"ev_stock_year_max":null},{"iso_a3":"ALB","name":"Albania","name_short":"Albania","continent":"Europe","region_un":"Europe","subregion":"Southern Europe","bbox":[19.272033,39.637013,21.036679,42.654814],"center":{"lon":20.154356,"lat":41.145913500000006},"station_count":0,"dc_fast_count":0,"ultra_count":0,"has_station_data":false,"has_ev_stock_data":false,"ev_stock_year_min":null,"ev_stock_year_max":null},{"iso_a3":"DZA","name":"Algeria","name_short":"Algeria","continent":"Africa","region_un":"Africa","subregion":"Northern Africa","bbox":[-8.682385,18.975561,11.968861,37.09394],"center":{"lon":1.6432380000000002,"lat":28.0347505},"station_count":0,"dc_fast_count":0,"ultra_count":0,"has_station_data":false,"has_ev_stock_data":false,"ev_stock_year_min":null,"ev_stock_year_max":null},{"iso_a3":"ASM","name":"American Samoa","name_short":"American Samoa","continent":"Oceania","region_un":"Oceania","subregion":"Polynesia","bbox":[-171.086537,-14.532892,-168.160471,-11.051365],"center":{"lon":-169.623504,"lat":-12.7921285},"station_count":0,"dc_fast_count":0,"ultra_count":0,"has_station_data":false,"has_ev_stock_data":false,"ev_stock_year_min":null,"ev_stock_year_max":null},{"iso_a3":"AND","name":"Andorra","name_short":"Andorra","continent":"Europe","region_un":"Europe","subregion":"Southern Europe","bbox":[1.406456,42.428677,1.765091,42.649362],"center":{"lon":1.5857735,"lat":42.5390195},"station_count":0,"dc_fast_count":0,"ultra_count":0,"has_station_data":false,"has_ev_stock_data":false,"ev_stock_year_min":null,"ev_stock_year_max":null},{"iso_a3":"AGO","name":"Angola","name_short":"Angola","continent":"Africa","region_un":"Africa","subregion":"Middle Africa","bbox":[11.669394,-18.031405,24.061714,-4.391204],"center":{"lon":17.865554,"lat":-11.2113045},"station_count":0,"dc_fast_count":0,"ultra_count":0,"has_station_data":false,"has_ev_stock_data":false,"ev_stock_year_min":null,"ev_stock_year_max":null},{"iso_a3":"AIA","name":"Anguilla","name_short":"Anguilla","continent":"North America","region_un":"Americas","subregion":"Caribbean","bbox":[-63.428822,18.169094,-62.925682,18.601264],"center":{"lon":-63.177251999999996,"lat":18.385179},"station_count":0,"dc_fast_count":0,"ultra_count":0,"has_station_data":false,"has_ev_stock_data":false,"ev_stock_year_min":null,"ev_stock_year_max":null},{"iso_a3":"ATA","name":"Antarctica","name_short":"Antarctica","continent":"Antarctica","region_un":"Antarctica","subregion":"Antarctica","bbox":[-180.0,-90.0,180.0,-60.516209],"center":{"lon":0.0,"lat":-75.2581045},"station_count":0,"dc_fast_count":0,"ultra_count":0,"has_station_data":false,"has_ev_stock_data":false,"ev_stock_year_min":null,"ev_stock_year_max":null},{"iso_a3":"ATG","name":"Antigua and Barbuda","name_short":"Antigua and Barb.","continent":"North America","region_un":"Americas","subregion":"Caribbean","bbox":[-62.34826,16.93197,-61.667592,17.727688],"center":{"lon":-62.007926,"lat":17.329829},"station_count":0,"dc_fast_count":0,"ultra_count":0,"has_station_data":false,"has_ev_stock_data":false,"ev_stock_year_min":null,"ev_stock_year_max":null},{"iso_a3":"ARG","name":"Argentina","name_short":"Argentina","continent":"South America","region_un":"Americas","subregion":"South America","bbox":[-73.57274,-55.052016,-53.661552,-21.786938],"center":{"lon":-63.617146,"lat":-38.419477},"station_count":0,"dc_fast_count":0,"ultra_count":0,"has_station_data":false,"has_ev_stock_data":false,"ev_stock_year_min":null,"ev_stock_year_max":null},{"iso_a3":"ARM","name":"Armenia","name_short":"Armenia","continent":"Asia","region_un":"Asia","subregion":"Western Asia","bbox":[43.436294,38.863701,46.602612,41.290452],"center":{"lon":45.019453,"lat":40.077076500000004},"station_count":0,"dc_fast_count":0,"ultra_count":0,"has_station_data":false,"has_ev_stock_data":false,"ev_stock_year_min":null,"ev_stock_year_max":null},{"iso_a3":"ABW","name":"Aruba","name_short":"Aruba","continent":"North America","region_un":"Americas","subregion":"Caribbean","bbox":[-70.062408,12.41767,-69.87682,12.632148],"center":{"lon":-69.969614,"lat":12.524909000000001},"station_count":57,"dc_fast_count":2,"ultra_count":55,"has_station_data":true,"has_ev_stock_data":false,"ev_stock_year_min":null,"ev_stock_year_max":null},{"iso_a3":"AUS","name":"Australia","name_short":"Australia","continent":"Oceania","region_un":"Oceania","subregion":"Australia and New Zealand","bbox":[112.919444,-54.750421,159.106456,-9.240167],"center":{"lon":136.01295,"lat":-31.995294},"station_count":0,"dc_fast_count":0,"ultra_count":0,"has_station_data":false,"has_ev_stock_data":true,"ev_stock_year_min":2012,"ev_stock_year_max":2024},{"iso_a3":"AUT","name":"Austria","name_short":"Austria","continent":"Europe","region_un":"Europe","subregion":"Western Europe","bbox":[9.521155,46.378643,17.148338,49.009774],"center":{"lon":13.3347465,"lat":47.6942085},"station_count":60,"dc_fast_count":15,"ultra_count":45,"has_station_data":true,"has_ev_stock_data":true,"ev_stock_year_min":2012,"ev_stock_year_max":2024},{"iso_a3":"AZE","name":"Azerbaijan","name_short":"Azerbaijan","continent":"Asia","region_un":"Asia","subregion":"Western Asia","bbox":[44.774559,38.392645,50.625743,41.890442],"center":{"lon":47.700151000000005,"lat":40.1415435},"station_count":0,"dc_fast_count":0,"ultra_count":0,"has_station_data":false,"has_ev_stock_data":false,"ev_stock_year_min":null,"ev_stock_year_max":null},{"iso_a3":"BHS","name":"Bahamas","name_short":"Bahamas","continent":"North America","region_un":"Americas","subregion":"Caribbean","bbox":[-79.59435,20.912399,-72.746165,26.928412],"center":{"lon":-76.1702575,"lat":23.9204055},"station_count":0,"dc_fast_count":0,"ultra_count":0,"has_station_data":false,"has_ev_stock_data":false,"ev_stock_year_min":null,"ev_stock_year_max":null},{"iso_a3":"BHR","name":"Bahrain","name_short":"Bahrain","continent":"Asia","region_un":"Asia","subregion":"Western Asia","bbox":[50.38053,25.579891,50.819875,26.287439],"center":{"lon":50.6002025,"lat":25.933664999999998},"station_count":0,"dc_fast_count":0,"ultra_count":0,"has_station_data":false,"has_ev_stock_data":false,"ev_stock_year_min":null,"ev_stock_year_max":null},{"iso_a3":"BGD","name":"Bangladesh","name_short":"Bangladesh","continent":"Asia","region_un":"Asia","subregion":"Southern Asia","bbox":[88.02179,20.738715,92.642851,26.623544],"center":{"lon":90.3323205,"lat":23.681129499999997},"station_count":0,"dc_fast_count":0,"ultra_count":0,"has_station_data":false,"has_ev_stock_data":false,"ev_stock_year_min":null,"ev_stock_year_max":null},{"iso_a3":"BRB","name":"Barbados","name_short":"Barbados","continent":"North America","region_un":"Americas","subregion":"Caribbean","bbox":[-59.654205,13.051174,-59.42691,13.34455],"center":{"lon":-59.5405575,"lat":13.197862},"station_count":0,"dc_fast_count":0,"ultra_count":0,"has_station_data":false,"has_ev_stock_data":false,"ev_stock_year_min":null,"ev_stock_year_max":null},{"iso_a3":"BLR","name":"Belarus","name_short":"Belarus","continent":"Europe","region_un":"Europe","subregion":"Eastern Europe","bbox":[23.165645,51.235168,32.719532,56.156806],"center":{"lon":27.9425885,"lat":53.695987},"station_count":0,"dc_fast_count":0,"ultra_count":0,"has_station_data":false,"has_ev_stock_data":false,"ev_stock_year_min":null,"ev_stock_year_max":null},{"iso_a3":"BEL","name":"Belgium","name_short":"Belgium","continent":"Europe","region_un":"Europe","subregion":"Western Europe","bbox":[2.5218,49.495223,6.374525,51.496238],"center":{"lon":4.4481625000000005,"lat":50.4957305},"station_count":26,"dc_fast_count":2,"ultra_count":24,"has_station_data":true,"has_ev_stock_data":true,"ev_stock_year_min":2010,"ev_stock_year_max":2024},{"iso_a3":"BLZ","name":"Belize","name_short":"Belize","continent":"North America","region_un":"Americas","subregion":"Central America","bbox":[-89.236512,15.879652,-87.78307,18.490759],"center":{"lon":-88.509791,"lat":17.185205500000002},"station_count":0,"dc_fast_count":0,"ultra_count":0,"has_station_data":false,"has_ev_stock_data":false,"ev_stock_year_min":null,"ev_stock_year_max":null},{"iso_a3":"BEN","name":"Benin","name_short":"Benin","continent":"Africa","region_un":"Africa","subregion":"Western Africa","bbox":[0.759881,6.213894,3.837419,12.399244],"center":{"lon":2.2986500000000003,"lat":9.306569},"station_count":0,"dc_fast_count":0,"ultra_count":0,"has_station_data":false,"has_ev_stock_data":false,"ev_stock_year_min":null,"ev_stock_year_max":null},{"iso_a3":"BMU","name":"Bermuda","name_short":"Bermuda","continent":"North America","region_un":"Americas","subregion":"Northern America","bbox":[-64.885994,32.248077,-64.647631,32.388658],"center":{"lon":-64.7668125,"lat":32.3183675},"station_count":0,"dc_fast_count":0,"ultra_count":0,"has_station_data":false,"has_ev_stock_data":false,"ev_stock_year_min":null,"ev_stock_year_max":null},{"iso_a3":"BTN","name":"Bhutan","name_short":"Bhutan","continent":"Asia","region_un":"Asia","subregion":"Southern Asia","bbox":[88.730067,26.696149,92.088776,28.358399],"center":{"lon":90.40942150000001,"lat":27.527274},"station_count":0,"dc_fast_count":0,"ultra_count":0,"has_station_data":false,"has_ev_stock_data":false,"ev_stock_year_min":null,"ev_stock_year_max":null},{"iso_a3":"BOL","name":"Bolivia","name_short":"Bolivia","continent":"South America","region_un":"Americas","subregion":"South America","bbox":[-69.666492,-22.897258,-57.465661,-9.679821],"center":{"lon":-63.5660765,"lat":-16.2885395},"station_count":0,"dc_fast_count":0,"ultra_count":0,"has_station_data":false,"has_ev_stock_data":false,"ev_stock_year_min":null,"ev_stock_year_max":null},{"iso_a3":"BIH","name":"Bosnia and Herzegovina","name_short":"Bosnia and Herz.","continent":"Europe","region_un":"Europe","subregion":"Southern Europe","bbox":[15.716074,42.559212,19.618885,45.284524],"center":{"lon":17.6674795,"lat":43.921868},"station_count":0,"dc_fast_count":0,"ultra_count":0,"has_station_data":false,"has_ev_stock_data":false,"ev_stock_year_min":null,"ev_stock_year_max":null},{"iso_a3":"BWA","name":"Botswana","name_short":"Botswana","continent":"Africa","region_un":"Africa","subregion":"Southern Africa","bbox":[19.978346,-26.891794,29.350074,-17.781808],"center":{"lon":24.664209999999997,"lat":-22.336801},"station_count":0,"dc_fast_count":0,"ultra_count":0,"has_station_data":false,"has_ev_stock_data":false,"ev_stock_year_min":null,"ev_stock_year_max":null},{"iso_a3":"BRA","name":"Brazil","name_short":"Brazil","continent":"South America","region_un":"Americas","subregion":"South America","bbox":[-74.018475,-33.74228,-28.877065,5.267225],"center":{"lon":-51.44777,"lat":-14.2375275},"station_count":0,"dc_fast_count":0,"ultra_count":0,"has_station_data":false,"has_ev_stock_data":true,"ev_stock_year_min":2015,"ev_stock_year_max":2024},{"iso_a3":"IOT","name":"British Indian Ocean Territory","name_short":"Br. Indian Ocean Ter.","continent":"Seven seas (open ocean)","region_un":"Africa","subregion":"Seven seas (open ocean)","bbox":[71.260997,-7.432224,72.49464,-5.226983],"center":{"lon":71.8778185,"lat":-6.329603499999999},"station_count":0,"dc_fast_count":0,"ultra_count":0,"has_station_data":false,"has_ev_stock_data":false,"ev_stock_year_min":null,"ev_stock_year_max":null},{"iso_a3":"VGB","name":"British Virgin Islands","name_short":"British Virgin Is.","continent":"North America","region_un":"Americas","subregion":"Caribbean","bbox":[-64.773997,18.334662,-64.270741,18.746243],"center":{"lon":-64.522369,"lat":18.5404525},"station_count":0,"dc_fast_count":0,"ultra_count":0,"has_station_data":false,"has_ev_stock_data":false,"ev_stock_year_min":null,"ev_stock_year_max":null},{"iso_a3":"BRN","name":"Brunei Darussalam","name_short":"Brunei","continent":"Asia","region_un":"Asia","subregion":"South-Eastern Asia","bbox":[113.99879,4.016681,115.360741,5.057196],"center":{"lon":114.6797655,"lat":4.5369385},"station_count":0,"dc_fast_count":0,"ultra_count":0,"has_station_data":false,"has_ev_stock_data":false,"ev_stock_year_min":null,"ev_stock_year_max":null},{"iso_a3":"BGR","name":"Bulgaria","name_short":"Bulgaria","continent":"Europe","region_un":"Europe","subregion":"Eastern Europe","bbox":[22.345023,41.238104,28.603526,44.228435],"center":{"lon":25.4742745,"lat":42.7332695},"station_count":3,"dc_fast_count":1,"ultra_count":2,"has_station_data":true,"has_ev_stock_data":false,"ev_stock_year_min":null,"ev_stock_year_max":null},{"iso_a3":"BFA","name":"Burkina Faso","name_short":"Burkina Faso","continent":"Africa","region_un":"Africa","subregion":"Western Africa","bbox":[-5.522578,9.391883,2.390169,15.079908],"center":{"lon":-1.5662045,"lat":12.2358955},"station_count":0,"dc_fast_count":0,"ultra_count":0,"has_station_data":false,"has_ev_stock_data":false,"ev_stock_year_min":null,"ev_stock_year_max":null},{"iso_a3":"BDI","name":"Burundi","name_short":"Burundi","continent":"Africa","region_un":"Africa","subregion":"Eastern Africa","bbox":[28.986892,-4.463344,30.833962,-2.303062],"center":{"lon":29.910427,"lat":-3.383203},"station_count":0,"dc_fast_count":0,"ultra_count":0,"has_station_data":false,"has_ev_stock_data":false,"ev_stock_year_min":null,"ev_stock_year_max":null},{"iso_a3":"KHM","name":"Cambodia","name_short":"Cambodia","continent":"Asia","region_un":"Asia","subregion":"South-Eastern Asia","bbox":[102.313424,10.415774,107.610516,14.704582],"center":{"lon":104.96197000000001,"lat":12.560178},"station_count":0,"dc_fast_count":0,"ultra_count":0,"has_station_data":false,"has_ev_stock_data":false,"ev_stock_year_min":null,"ev_stock_year_max":null},{"iso_a3":"CMR","name":"Cameroon","name_short":"Cameroon","continent":"Africa","region_un":"Africa","subregion":"Middle Africa","bbox":[8.505056,1.654551,16.207723,13.081141],"center":{"lon":12.3563895,"lat":7.367846},"station_count":0,"dc_fast_count":0,"ultra_count":0,"has_station_data":false,"has_ev_stock_data":false,"ev_stock_year_min":null,"ev_stock_year_max":null},{"iso_a3":"CAN","name":"Canada","name_short":"Canada","continent":"North America","region_un":"Americas","subregion":"Northern America","bbox":[-141.005564,41.669086,-52.616607,83.116523],"center":{"lon":-96.81108549999999,"lat":62.3928045},"station_count":14185,"dc_fast_count":2465,"ultra_count":273,"has_station_data":true,"has_ev_stock_data":true,"ev_stock_year_min":2011,"ev_stock_year_max":2024},{"iso_a3":"CYM","name":"Cayman Islands","name_short":"Cayman Is.","continent":"North America","region_un":"Americas","subregion":"Caribbean","bbox":[-81.416542,19.263864,-79.726643,19.757631],"center":{"lon":-80.57159250000001,"lat":19.5107475},"station_count":0,"dc_fast_count":0,"ultra_count":0,"has_station_data":false,"has_ev_stock_data":false,"ev_stock_year_min":null,"ev_stock_year_max":null},{"iso_a3":"CAF","name":"Central African Republic","name_short":"Central African Rep.","continent":"Africa","region_un":"Africa","subregion":"Middle Africa","bbox":[14.387266,2.236454,27.441301,11.000828],"center":{"lon":20.9142835,"lat":6.618641},"station_count":0,"dc_fast_count":0,"ultra_count":0,"has_station_data":false,"has_ev_stock_data":false,"ev_stock_year_min":null,"ev_stock_year_max":null},{"iso_a3":"TCD","name":"Chad","name_short":"Chad","continent":"Africa","region_un":"Africa","subregion":"Middle Africa","bbox":[13.449184,7.455567,23.984406,23.44472],"center":{"lon":18.716795,"lat":15.4501435},"station_count":0,"dc_fast_count":0,"ultra_count":0,"has_station_data":false,"has_ev_stock_data":false,"ev_stock_year_min":null,"ev_stock_year_max":null},{"iso_a3":"CHL","name":"Chile","name_short":"Chile","continent":"South America","region_un":"Americas","subregion":"South America","bbox":[-109.453725,-55.918504,-66.420806,-17.506588],"center":{"lon":-87.9372655,"lat":-36.712546},"station_count":2,"dc_fast_count":0,"ultra_count":2,"has_station_data":true,"has_ev_stock_data":true,"ev_stock_year_min":2014,"ev_stock_year_max":2024},{"iso_a3":"CHN","name":"China","name_short":"China","continent":"Asia","region_un":"Asia","subregion":"Eastern Asia","bbox":[73.602256,15.775377,134.772579,53.569444],"center":{"lon":104.18741750000001,"lat":34.6724105},"station_count":0,"dc_fast_count":0,"ultra_count":0,"has_station_data":false,"has_ev_stock_data":true,"ev_stock_year_min":2010,"ev_stock_year_max":2024},{"iso_a3":"COL","name":"Colombia","name_short":"Colombia","continent":"South America","region_un":"Americas","subregion":"South America","bbox":[-81.723704,-4.236484,-66.875061,13.578355],"center":{"lon":-74.29938250000001,"lat":4.670935500000001},"station_count":0,"dc_fast_count":0,"ultra_count":0,"has_station_data":false,"has_ev_stock_data":false,"ev_stock_year_min":null,"ev_stock_year_max":null},{"iso_a3":"COM","name":"Comoros","name_short":"Comoros","continent":"Africa","region_un":"Africa","subregion":"Eastern Africa","bbox":[43.213227,-12.380304,44.529063,-11.361261],"center":{"lon":43.871145,"lat":-11.8707825},"station_count":0,"dc_fast_count":0,"ultra_count":0,"has_station_data":false,"has_ev_stock_data":false,"ev_stock_year_min":null,"ev_stock_year_max":null},{"iso_a3":"COK","name":"Cook Islands","name_short":"Cook Is.","continent":"Oceania","region_un":"Oceania","subregion":"Polynesia","bbox":[-165.824534,-21.938897,-157.312815,-8.94671],"center":{"lon":-161.5686745,"lat":-15.4428035},"station_count":0,"dc_fast_count":0,"ultra_count":0,"has_station_data":false,"has_ev_stock_data":false,"ev_stock_year_min":null,"ev_stock_year_max":null},{"iso_a3":"CRI","name":"Costa Rica","name_short":"Costa Rica","continent":"North America","region_un":"Americas","subregion":"Central America","bbox":[-87.117665,5.515082,-82.562837,11.209937],"center":{"lon":-84.840251,"lat":8.3625095},"station_count":0,"dc_fast_count":0,"ultra_count":0,"has_station_data":false,"has_ev_stock_data":false,"ev_stock_year_min":null,"ev_stock_year_max":null},{"iso_a3":"HRV","name":"Croatia","name_short":"Croatia","continent":"Europe","region_un":"Europe","subregion":"Southern Europe","bbox":[13.501475,42.416327,19.407838,46.546979],"center":{"lon":16.4546565,"lat":44.481653},"station_count":15,"dc_fast_count":5,"ultra_count":10,"has_station_data":true,"has_ev_stock_data":false,"ev_stock_year_min":null,"ev_stock_year_max":null},{"iso_a3":"CUB","name":"Cuba","name_short":"Cuba","continent":"North America","region_un":"Americas","subregion":"Caribbean","bbox":[-84.949615,19.827826,-74.132883,23.26557],"center":{"lon":-79.541249,"lat":21.546698},"station_count":0,"dc_fast_count":0,"ultra_count":0,"has_station_data":false,"has_ev_stock_data":false,"ev_stock_year_min":null,"ev_stock_year_max":null},{"iso_a3":"CUW","name":"Curaçao","name_short":"Curaçao","continent":"North America","region_un":"Americas","subregion":"Caribbean","bbox":[-69.171742,12.041327,-68.739735,12.391506],"center":{"lon":-68.9557385,"lat":12.216416500000001},"station_count":0,"dc_fast_count":0,"ultra_count":0,"has_station_data":false,"has_ev_stock_data":false,"ev_stock_year_min":null,"ev_stock_year_max":null},{"iso_a3":"CYP","name":"Cyprus","name_short":"Cyprus","continent":"Asia","region_un":"Asia","subregion":"Western Asia","bbox":[32.271739,34.625019,34.099132,35.187082],"center":{"lon":33.1854355,"lat":34.9060505},"station_count":0,"dc_fast_count":0,"ultra_count":0,"has_station_data":false,"has_ev_stock_data":false,"ev_stock_year_min":null,"ev_stock_year_max":null},{"iso_a3":"CZE","name":"Czech Republic","name_short":"Czechia","continent":"Europe","region_un":"Europe","subregion":"Eastern Europe","bbox":[12.076141,48.557916,18.837434,51.040012],"center":{"lon":15.456787499999999,"lat":49.798964},"station_count":12,"dc_fast_count":0,"ultra_count":12,"has_station_data":true,"has_ev_stock_data":false,"ev_stock_year_min":null,"ev_stock_year_max":null},{"iso_a3":"CIV","name":"Côte d'Ivoire","name_short":"Côte d'Ivoire","continent":"Africa","region_un":"Africa","subregion":"Western Africa","bbox":[-8.61872,4.344062,-2.506328,10.726478],"center":{"lon":-5.562524,"lat":7.535270000000001},"station_count":0,"dc_fast_count":0,"ultra_count":0,"has_station_data":false,"has_ev_stock_data":false,"ev_stock_year_min":null,"ev_stock_year_max":null},{"iso_a3":"PRK","name":"Dem. Rep. Korea","name_short":"North Korea","continent":"Asia","region_un":"Asia","subregion":"Eastern Asia","bbox":[124.211316,37.675605,130.699962,43.01027],"center":{"lon":127.45563899999999,"lat":40.3429375},"station_count":0,"dc_fast_count":0,"ultra_count":0,"has_station_data":false,"has_ev_stock_data":false,"ev_stock_year_min":null,"ev_stock_year_max":null},{"iso_a3":"COD","name":"Democratic Republic of the Congo","name_short":"Dem. Rep. Congo","continent":"Africa","region_un":"Africa","subregion":"Middle Africa","bbox":[12.210541,-13.458351,31.280447,5.37528],"center":{"lon":21.745494,"lat":-4.0415355},"station_count":0,"dc_fast_count":0,"ultra_count":0,"has_station_data":false,"has_ev_stock_data":false,"ev_stock_year_min":null,"ev_stock_year_max":null},{"iso_a3":"DNK","name":"Denmark","name_short":"Denmark","continent":"Europe","region_un":"Europe","subregion":"Northern Europe","bbox":[8.094005,54.56859,15.151378,57.751166],"center":{"lon":11.622691499999998,"lat":56.159878},"station_count":0,"dc_fast_count":0,"ultra_count":0,"has_station_data":false,"has_ev_stock_data":true,"ev_stock_year_min":2010,"ev_stock_year_max":2024},{"iso_a3":"DJI","name":"Djibouti","name_short":"Djibouti","continent":"Africa","region_un":"Africa","subregion":"Eastern Africa","bbox":[41.74911,10.929825,43.418712,12.707913],"center":{"lon":42.583911,"lat":11.818869},"station_count":0,"dc_fast_count":0,"ultra_count":0,"has_station_data":false,"has_ev_stock_data":false,"ev_stock_year_min":null,"ev_stock_year_max":null},{"iso_a3":"DMA","name":"Dominica","name_short":"Dominica","continent":"North America","region_un":"Americas","subregion":"Caribbean","bbox":[-61.488922,15.201809,-61.249257,15.633857],"center":{"lon":-61.3690895,"lat":15.417833000000002},"station_count":0,"dc_fast_count":0,"ultra_count":0,"has_station_data":false,"has_ev_stock_data":false,"ev_stock_year_min":null,"ev_stock_year_max":null},{"iso_a3":"DOM","name":"Dominican Republic","name_short":"Dominican Rep.","continent":"North America","region_un":"Americas","subregion":"Caribbean","bbox":[-72.009838,17.545559,-68.328603,19.93769],"center":{"lon":-70.1692205,"lat":18.7416245},"station_count":0,"dc_fast_count":0,"ultra_count":0,"has_station_data":false,"has_ev_stock_data":false,"ev_stock_year_min":null,"ev_stock_year_max":null},{"iso_a3":"ECU","name":"Ecuador","name_short":"Ecuador","continent":"South America","region_un":"Americas","subregion":"South America","bbox":[-92.011586,-5.011373,-75.227264,1.664374],"center":{"lon":-83.619425,"lat":-1.6734995},"station_count":0,"dc_fast_count":0,"ultra_count":0,"has_station_data":false,"has_ev_stock_data":false,"ev_stock_year_min":null,"ev_stock_year_max":null},{"iso_a3":"EGY","name":"Egypt","name_short":"Egypt","continent":"Africa","region_un":"Africa","subregion":"Northern Africa","bbox":[24.688343,21.994369,36.899181,31.65648],"center":{"lon":30.793762,"lat":26.825424499999997},"station_count":0,"dc_fast_count":0,"ultra_count":0,"has_station_data":false,"has_ev_stock_data":false,"ev_stock_year_min":null,"ev_stock_year_max":null},{"iso_a3":"SLV","name":"El Salvador","name_short":"El Salvador","continent":"North America","region_un":"Americas","subregion":"Central America","bbox":[-90.114779,13.158637,-87.693194,14.445373],"center":{"lon":-88.9039865,"lat":13.802005000000001},"station_count":0,"dc_fast_count":0,"ultra_count":0,"has_station_data":false,"has_ev_stock_data":false,"ev_stock_year_min":null,"ev_stock_year_max":null},{"iso_a3":"GNQ","name":"Equatorial Guinea","name_short":"Eq. Guinea","continent":"Africa","region_un":"Africa","subregion":"Middle Africa","bbox":[5.61199,-1.475681,11.336341,3.772406],"center":{"lon":8.4741655,"lat":1.1483625000000002},"station_count":0,"dc_fast_count":0,"ultra_count":0,"has_station_data":false,"has_ev_stock_data":false,"ev_stock_year_min":null,"ev_stock_year_max":null},{"iso_a3":"ERI","name":"Eritrea","name_short":"Eritrea","continent":"Africa","region_un":"Africa","subregion":"Eastern Africa","bbox":[36.423647,12.360022,43.123871,18.004828],"center":{"lon":39.773759,"lat":15.182425},"station_count":0,"dc_fast_count":0,"ultra_count":0,"has_station_data":false,"has_ev_stock_data":false,"ev_stock_year_min":null,"ev_stock_year_max":null},{"iso_a3":"EST","name":"Estonia","name_short":"Estonia","continent":"Europe","region_un":"Europe","subregion":"Northern Europe","bbox":[21.832367,57.515819,28.186475,59.670885],"center":{"lon":25.009421000000003,"lat":58.593351999999996},"station_count":2,"dc_fast_count":0,"ultra_count":2,"has_station_data":true,"has_ev_stock_data":false,"ev_stock_year_min":null,"ev_stock_year_max":null},{"iso_a3":"ETH","name":"Ethiopia","name_short":"Ethiopia","continent":"Africa","region_un":"Africa","subregion":"Eastern Africa","bbox":[32.9898,3.403333,47.979169,14.879532],"center":{"lon":40.4844845,"lat":9.1414325},"station_count":0,"dc_fast_count":0,"ultra_count":0,"has_station_data":false,"has_ev_stock_data":false,"ev_stock_year_min":null,"ev_stock_year_max":null},{"iso_a3":"FRO","name":"Faeroe Islands","name_short":"Faeroe Is.","continent":"Europe","region_un":"Europe","subregion":"Northern Europe","bbox":[-7.644154,61.39411,-6.275787,62.398912],"center":{"lon":-6.959970500000001,"lat":61.896511000000004},"station_count":40,"dc_fast_count":5,"ultra_count":35,"has_station_data":true,"has_ev_stock_data":false,"ev_stock_year_min":null,"ev_stock_year_max":null},{"iso_a3":"FLK","name":"Falkland Islands / Malvinas","name_short":"Falkland Is.","continent":"South America","region_un":"Americas","subregion":"South America","bbox":[-61.318186,-52.406523,-57.734283,-51.027765],"center":{"lon":-59.5262345,"lat":-51.717144000000005},"station_count":222,"dc_fast_count":20,"ultra_count":202,"has_station_data":true,"has_ev_stock_data":false,"ev_stock_year_min":null,"ev_stock_year_max":null},{"iso_a3":"FSM","name":"Federated States of Micronesia","name_short":"Micronesia","continent":"Oceania","region_un":"Oceania","subregion":"Micronesia","bbox":[138.063813,0.918158,163.04656,9.77558],"center":{"lon":150.5551865,"lat":5.346869},"station_count":0,"dc_fast_count":0,"ultra_count":0,"has_station_data":false,"has_ev_stock_data":false,"ev_stock_year_min":null,"ev_stock_year_max":null},{"iso_a3":"FJI","name":"Fiji","name_short":"Fiji","continent":"Oceania","region_un":"Oceania","subregion":"Melanesia","bbox":[-180.0,-21.711114,180.0,-12.475274],"center":{"lon":0.0,"lat":-17.093194},"station_count":0,"dc_fast_count":0,"ultra_count":0,"has_station_data":false,"has_ev_stock_data":false,"ev_stock_year_min":null,"ev_stock_year_max":null},{"iso_a3":"FIN","name":"Finland","name_short":"Finland","continent":"Europe","region_un":"Europe","subregion":"Northern Europe","bbox":[20.623165,59.811225,31.569525,70.07531],"center":{"lon":26.096345,"lat":64.9432675},"station_count":0,"dc_fast_count":0,"ultra_count":0,"has_station_data":false,"has_ev_stock_data":true,"ev_stock_year_min":2012,"ev_stock_year_max":2024},{"iso_a3":"PYF","name":"French Polynesia","name_short":"Fr. Polynesia","continent":"Oceania","region_un":"Oceania","subregion":"Polynesia","bbox":[-154.536977,-27.641209,-134.942983,-7.950128],"center":{"lon":-144.73998,"lat":-17.7956685},"station_count":0,"dc_fast_count":0,"ultra_count":0,"has_station_data":false,"has_ev_stock_data":false,"ev_stock_year_min":null,"ev_stock_year_max":null},{"iso_a3":"ATF","name":"French Southern and Antarctic Lands","name_short":"Fr. S. Antarctic Lands","continent":"Seven seas (open ocean)","region_un":"Africa","subregion":"Seven seas (open ocean)","bbox":[39.728282,-49.721612,77.585216,-11.550632],"center":{"lon":58.656749000000005,"lat":-30.636122},"station_count":0,"dc_fast_count":0,"ultra_count":0,"has_station_data":false,"has_ev_stock_data":false,"ev_stock_year_min":null,"ev_stock_year_max":null},{"iso_a3":"GAB","name":"Gabon","name_short":"Gabon","continent":"Africa","region_un":"Africa","subregion":"Middle Africa","bbox":[8.695567,-3.936856,14.498991,2.322495],"center":{"lon":11.597279,"lat":-0.8071805000000001},"station_count":0,"dc_fast_count":0,"ultra_count":0,"has_station_data":false,"has_ev_stock_data":false,"ev_stock_year_min":null,"ev_stock_year_max":null},{"iso_a3":"GEO","name":"Georgia","name_short":"Georgia","continent":"Asia","region_un":"Asia","subregion":"Western Asia","bbox":[39.985976,41.044111,46.694803,43.575843],"center":{"lon":43.3403895,"lat":42.309977},"station_count":0,"dc_fast_count":0,"ultra_count":0,"has_station_data":false,"has_ev_stock_data":false,"ev_stock_year_min":null,"ev_stock_year_max":null},{"iso_a3":"DEU","name":"Germany","name_short":"Germany","continent":"Europe","region_un":"Europe","subregion":"Western Europe","bbox":[5.85249,47.271121,15.022059,55.065334],"center":{"lon":10.437274500000001,"lat":51.1682275},"station_count":105712,"dc_fast_count":7488,"ultra_count":18324,"has_station_data":true,"has_ev_stock_data":true,"ev_stock_year_min":2011,"ev_stock_year_max":2024},{"iso_a3":"GHA","name":"Ghana","name_short":"Ghana","continent":"Africa","region_un":"Africa","subregion":"Western Africa","bbox":[-3.262509,4.737128,1.187968,11.162937],"center":{"lon":-1.0372705,"lat":7.9500325},"station_count":0,"dc_fast_count":0,"ultra_count":0,"has_station_data":false,"has_ev_stock_data":false,"ev_stock_year_min":null,"ev_stock_year_max":null},{"iso_a3":"GIB","name":"Gibraltar","name_short":"Gibraltar","continent":"Europe","region_un":"Europe","subregion":"Southern Europe","bbox":[-5.358387,36.1105,-5.338773,36.14112],"center":{"lon":-5.34858,"lat":36.12581},"station_count":0,"dc_fast_count":0,"ultra_count":0,"has_station_data":false,"has_ev_stock_data":false,"ev_stock_year_min":null,"ev_stock_year_max":null},{"iso_a3":"GRC","name":"Greece","name_short":"Greece","continent":"Europe","region_un":"Europe","subregion":"Southern Europe","bbox":[19.626475,34.815009,28.239757,41.750476],"center":{"lon":23.933116,"lat":38.2827425},"station_count":8,"dc_fast_count":1,"ultra_count":7,"has_station_data":true,"has_ev_stock_data":true,"ev_stock_year_min":2015,"ev_stock_year_max":2024},{"iso_a3":"GRL","name":"Greenland","name_short":"Greenland","continent":"North America","region_un":"Americas","subregion":"Northern America","bbox":[-73.05724,59.792629,-11.37682,83.634101],"center":{"lon":-42.217029999999994,"lat":71.713365},"station_count":0,"dc_fast_count":0,"ultra_count":0,"has_station_data":false,"has_ev_stock_data":false,"ev_stock_year_min":null,"ev_stock_year_max":null},{"iso_a3":"GRD","name":"Grenada","name_short":"Grenada","continent":"North America","region_un":"Americas","subregion":"Caribbean","bbox":[-61.790517,12.002834,-61.42162,12.529731],"center":{"lon":-61.6060685,"lat":12.266282499999999},"station_count":0,"dc_fast_count":0,"ultra_count":0,"has_station_data":false,"has_ev_stock_data":false,"ev_stock_year_min":null,"ev_stock_year_max":null},{"iso_a3":"GUM","name":"Guam","name_short":"Guam","continent":"Oceania","region_un":"Oceania","subregion":"Micronesia","bbox":[144.624197,13.241034,144.952159,13.65412],"center":{"lon":144.78817800000002,"lat":13.447577},"station_count":0,"dc_fast_count":0,"ultra_count":0,"has_station_data":false,"has_ev_stock_data":false,"ev_stock_year_min":null,"ev_stock_year_max":null},{"iso_a3":"GTM","name":"Guatemala","name_short":"Guatemala","continent":"North America","region_un":"Americas","subregion":"Central America","bbox":[-92.246257,13.731404,-88.220937,17.81602],"center":{"lon":-90.233597,"lat":15.773712},"station_count":0,"dc_fast_count":0,"ultra_count":0,"has_station_data":false,"has_ev_stock_data":false,"ev_stock_year_min":null,"ev_stock_year_max":null},{"iso_a3":"GGY","name":"Guernsey","name_short":"Guernsey","continent":"Europe","region_un":"Europe","subregion":"Northern Europe","bbox":[-2.673451,49.411566,-2.170318,49.731391],"center":{"lon":-2.4218845,"lat":49.5714785},"station_count":0,"dc_fast_count":0,"ultra_count":0,"has_station_data":false,"has_ev_stock_data":false,"ev_stock_year_min":null,"ev_stock_year_max":null},{"iso_a3":"GIN","name":"Guinea","name_short":"Guinea","continent":"Africa","region_un":"Africa","subregion":"Western Africa","bbox":[-15.081125,7.190208,-7.662447,12.673388],"center":{"lon":-11.371786,"lat":9.931798},"station_count":0,"dc_fast_count":0,"ultra_count":0,"has_station_data":false,"has_ev_stock_data":false,"ev_stock_year_min":null,"ev_stock_year_max":null},{"iso_a3":"GNB","name":"Guinea-Bissau","name_short":"Guinea-Bissau","continent":"Africa","region_un":"Africa","subregion":"Western Africa","bbox":[-16.728437,10.927639,-13.660712,12.679434],"center":{"lon":-15.1945745,"lat":11.8035365},"station_count":0,"dc_fast_count":0,"ultra_count":0,"has_station_data":false,"has_ev_stock_data":false,"ev_stock_year_min":null,"ev_stock_year_max":null},{"iso_a3":"GUY","name":"Guyana","name_short":"Guyana","continent":"South America","region_un":"Americas","subregion":"South America","bbox":[-61.396713,1.18582,-56.481819,8.55801],"center":{"lon":-58.939266,"lat":4.8719149999999996},"station_count":0,"dc_fast_count":0,"ultra_count":0,"has_station_data":false,"has_ev_stock_data":false,"ev_stock_year_min":null,"ev_stock_year_max":null},{"iso_a3":"HTI","name":"Haiti","name_short":"Haiti","continent":"North America","region_un":"Americas","subregion":"Caribbean","bbox":[-74.489166,18.025946,-71.639111,20.089789],"center":{"lon":-73.0641385,"lat":19.0578675},"station_count":0,"dc_fast_count":0,"ultra_count":0,"has_station_data":false,"has_ev_stock_data":false,"ev_stock_year_min":null,"ev_stock_year_max":null},{"iso_a3":"HMD","name":"Heard I. and McDonald Islands","name_short":"Heard I. and McDonald Is.","continent":"Seven seas (open ocean)","region_un":"Africa","subregion":"Seven seas (open ocean)","bbox":[73.236013,-53.19256,73.812185,-52.961602],"center":{"lon":73.524099,"lat":-53.077081},"station_count":0,"dc_fast_count":0,"ultra_count":0,"has_station_data":false,"has_ev_stock_data":false,"ev_stock_year_min":null,"ev_stock_year_max":null},{"iso_a3":"HND","name":"Honduras","name_short":"Honduras","continent":"North America","region_un":"Americas","subregion":"Central America","bbox":[-89.363791,12.979777,-83.130444,17.418647],"center":{"lon":-86.2471175,"lat":15.199212},"station_count":0,"dc_fast_count":0,"ultra_count":0,"has_station_data":false,"has_ev_stock_data":false,"ev_stock_year_min":null,"ev_stock_year_max":null},{"iso_a3":"HKG","name":"Hong Kong","name_short":"Hong Kong","continent":"Asia","region_un":"Asia","subregion":"Eastern Asia","bbox":[113.837332,22.177069,114.401296,22.563946],"center":{"lon":114.119314,"lat":22.370507500000002},"station_count":0,"dc_fast_count":0,"ultra_count":0,"has_station_data":false,"has_ev_stock_data":false,"ev_stock_year_min":null,"ev_stock_year_max":null},{"iso_a3":"HUN","name":"Hungary","name_short":"Hungary","continent":"Europe","region_un":"Europe","subregion":"Eastern Europe","bbox":[16.094035,45.741343,22.877601,48.569233],"center":{"lon":19.485818000000002,"lat":47.155288},"station_count":14,"dc_fast_count":1,"ultra_count":13,"has_station_data":true,"has_ev_stock_data":false,"ev_stock_year_min":null,"ev_stock_year_max":null},{"iso_a3":"ISL","name":"Iceland","name_short":"Iceland","continent":"Europe","region_un":"Europe","subregion":"Northern Europe","bbox":[-24.539906,63.396715,-13.502919,66.564154],"center":{"lon":-19.0214125,"lat":64.9804345},"station_count":16,"dc_fast_count":3,"ultra_count":13,"has_station_data":true,"has_ev_stock_data":true,"ev_stock_year_min":2012,"ev_stock_year_max":2024},{"iso_a3":"IND","name":"India","name_short":"India","continent":"Asia","region_un":"Asia","subregion":"Southern Asia","bbox":[68.143403,6.745551,97.362253,35.495406],"center":{"lon":82.752828,"lat":21.1204785},"station_count":5,"dc_fast_count":0,"ultra_count":5,"has_station_data":true,"has_ev_stock_data":true,"ev_stock_year_min":2019,"ev_stock_year_max":2024},{"iso_a3":"IDN","name":"Indonesia","name_short":"Indonesia","continent":"Asia","region_un":"Asia","subregion":"South-Eastern Asia","bbox":[95.012706,-10.922621,140.977627,5.910102],"center":{"lon":117.99516650000001,"lat":-2.5062594999999996},"station_count":0,"dc_fast_count":0,"ultra_count":0,"has_station_data":false,"has_ev_stock_data":false,"ev_stock_year_min":null,"ev_stock_year_max":null},{"iso_a3":"IRN","name":"Iran","name_short":"Iran","continent":"Asia","region_un":"Asia","subregion":"Southern Asia","bbox":[44.014863,25.059408,63.319628,39.771527],"center":{"lon":53.6672455,"lat":32.4154675},"station_count":0,"dc_fast_count":0,"ultra_count":0,"has_station_data":false,"has_ev_stock_data":false,"ev_stock_year_min":null,"ev_stock_year_max":null},{"iso_a3":"IRQ","name":"Iraq","name_short":"Iraq","continent":"Asia","region_un":"Asia","subregion":"Western Asia","bbox":[38.774511,29.063137,48.559255,37.375498],"center":{"lon":43.666883,"lat":33.2193175},"station_count":0,"dc_fast_count":0,"ultra_count":0,"has_station_data":false,"has_ev_stock_data":false,"ev_stock_year_min":null,"ev_stock_year_max":null},{"iso_a3":"IRL","name":"Ireland","name_short":"Ireland","continent":"Europe","region_un":"Europe","subregion":"Northern Europe","bbox":[-10.478179,51.445705,-5.99352,55.386379],"center":{"lon":-8.2358495,"lat":53.416042},"station_count":9,"dc_fast_count":4,"ultra_count":5,"has_station_data":true,"has_ev_stock_data":false,"ev_stock_year_min":null,"ev_stock_year_max":null},{"iso_a3":"IMN","name":"Isle of Man","name_short":"Isle of Man","continent":"Europe","region_un":"Europe","subregion":"Northern Europe","bbox":[-4.790151,54.056952,-4.31192,54.419013],"center":{"lon":-4.551035499999999,"lat":54.2379825},"station_count":0,"dc_fast_count":0,"ultra_count":0,"has_station_data":false,"has_ev_stock_data":false,"ev_stock_year_min":null,"ev_stock_year_max":null},{"iso_a3":"ISR","name":"Israel","name_short":"Israel","continent":"Asia","region_un":"Asia","subregion":"Western Asia","bbox":[34.248351,29.489691,35.888073,33.406722],"center":{"lon":35.068212,"lat":31.4482065},"station_count":0,"dc_fast_count":0,"ultra_count":0,"has_station_data":false,"has_ev_stock_data":true,"ev_stock_year_min":2012,"ev_stock_year_max":2024},{"iso_a3":"ITA","name":"Italy","name_short":"Italy","continent":"Europe","region_un":"Europe","subregion":"Southern Europe","bbox":[6.602728,35.489244,18.517426,47.085215],"center":{"lon":12.560077,"lat":41.287229499999995},"station_count":110,"dc_fast_count":3,"ultra_count":107,"has_station_data":true,"has_ev_stock_data":true,"ev_stock_year_min":2013,"ev_stock_year_max":2024},{"iso_a3":"JAM","name":"Jamaica","name_short":"Jamaica","continent":"North America","region_un":"Americas","subregion":"Caribbean","bbox":[-78.374664,17.703192,-76.187978,18.525092],"center":{"lon":-77.28132099999999,"lat":18.114142},"station_count":0,"dc_fast_count":0,"ultra_count":0,"has_station_data":false,"has_ev_stock_data":false,"ev_stock_year_min":null,"ev_stock_year_max":null},{"iso_a3":"JPN","name":"Japan","name_short":"Japan","continent":"Asia","region_un":"Asia","subregion":"Eastern Asia","bbox":[122.938162,24.212104,153.985606,45.520413],"center":{"lon":138.461884,"lat":34.8662585},"station_count":151,"dc_fast_count":28,"ultra_count":123,"has_station_data":true,"has_ev_stock_data":true,"ev_stock_year_min":2011,"ev_stock_year_max":2024},{"iso_a3":"JEY","name":"Jersey","name_short":"Jersey","continent":"Europe","region_un":"Europe","subregion":"Northern Europe","bbox":[-2.242014,49.171332,-2.00829,49.267035],"center":{"lon":-2.125152,"lat":49.2191835},"station_count":0,"dc_fast_count":0,"ultra_count":0,"has_station_data":false,"has_ev_stock_data":false,"ev_stock_year_min":null,"ev_stock_year_max":null},{"iso_a3":"JOR","name":"Jordan","name_short":"Jordan","continent":"Asia","region_un":"Asia","subregion":"Western Asia","bbox":[34.949385,29.189951,39.291999,33.371685],"center":{"lon":37.120692,"lat":31.280818},"station_count":4,"dc_fast_count":4,"ultra_count":0,"has_station_data":true,"has_ev_stock_data":false,"ev_stock_year_min":null,"ev_stock_year_max":null},{"iso_a3":"KAZ","name":"Kazakhstan","name_short":"Kazakhstan","continent":"Asia","region_un":"Asia","subregion":"Central Asia","bbox":[46.478279,40.584656,87.323796,55.43455],"center":{"lon":66.9010375,"lat":48.009603},"station_count":2,"dc_fast_count":2,"ultra_count":0,"has_station_data":true,"has_ev_stock_data":false,"ev_stock_year_min":null,"ev_stock_year_max":null},{"iso_a3":"KEN","name":"Kenya","name_short":"Kenya","continent":"Africa","region_un":"Africa","subregion":"Eastern Africa","bbox":[33.890468,-4.677504,41.885019,5.030376],"center":{"lon":37.8877435,"lat":0.17643600000000026},"station_count":0,"dc_fast_count":0,"ultra_count":0,"has_station_data":false,"has_ev_stock_data":false,"ev_stock_year_min":null,"ev_stock_year_max":null},{"iso_a3":"SWZ","name":"Kingdom of eSwatini","name_short":"eSwatini","continent":"Africa","region_un":"Africa","subregion":"Southern Africa","bbox":[30.782906,-27.316264,32.117398,-25.735999],"center":{"lon":31.450152000000003,"lat":-26.526131499999998},"station_count":0,"dc_fast_count":0,"ultra_count":0,"has_station_data":false,"has_ev_stock_data":false,"ev_stock_year_min":null,"ev_stock_year_max":null},{"iso_a3":"KIR","name":"Kiribati","name_short":"Kiribati","continent":"Oceania","region_un":"Oceania","subregion":"Micronesia","bbox":[-174.543406,-11.461114,176.850922,4.72309],"center":{"lon":1.1537579999999963,"lat":-3.369012},"station_count":0,"dc_fast_count":0,"ultra_count":0,"has_station_data":false,"has_ev_stock_data":false,"ev_stock_year_min":null,"ev_stock_year_max":null},{"iso_a3":"KWT","name":"Kuwait","name_short":"Kuwait","continent":"Asia","region_un":"Asia","subregion":"Western Asia","bbox":[46.532436,28.533505,48.432781,30.098216],"center":{"lon":47.4826085,"lat":29.3158605},"station_count":0,"dc_fast_count":0,"ultra_count":0,"has_station_data":false,"has_ev_stock_data":false,"ev_stock_year_min":null,"ev_stock_year_max":null},{"iso_a3":"KGZ","name":"Kyrgyzstan","name_short":"Kyrgyzstan","continent":"Asia","region_un":"Asia","subregion":"Central Asia","bbox":[69.226296,39.189237,80.257561,43.261702],"center":{"lon":74.7419285,"lat":41.2254695},"station_count":0,"dc_fast_count":0,"ultra_count":0,"has_station_data":false,"has_ev_stock_data":false,"ev_stock_year_min":null,"ev_stock_year_max":null},{"iso_a3":"LAO","name":"Lao PDR","name_short":"Laos","continent":"Asia","region_un":"Asia","subregion":"South-Eastern Asia","bbox":[100.097073,13.915457,107.664363,22.496044],"center":{"lon":103.880718,"lat":18.2057505},"station_count":0,"dc_fast_count":0,"ultra_count":0,"has_station_data":false,"has_ev_stock_data":false,"ev_stock_year_min":null,"ev_stock_year_max":null},{"iso_a3":"LVA","name":"Latvia","name_short":"Latvia","continent":"Europe","region_un":"Europe","subregion":"Northern Europe","bbox":[20.968598,55.666991,28.217275,58.075138],"center":{"lon":24.5929365,"lat":56.8710645},"station_count":2,"dc_fast_count":0,"ultra_count":2,"has_station_data":true,"has_ev_stock_data":false,"ev_stock_year_min":null,"ev_stock_year_max":null},{"iso_a3":"LBN","name":"Lebanon","name_short":"Lebanon","continent":"Asia","region_un":"Asia","subregion":"Western Asia","bbox":[35.09962,33.05558,36.604101,34.687548],"center":{"lon":35.8518605,"lat":33.871564},"station_count":0,"dc_fast_count":0,"ultra_count":0,"has_station_data":false,"has_ev_stock_data":false,"ev_stock_year_min":null,"ev_stock_year_max":null},{"iso_a3":"LSO","name":"Lesotho","name_short":"Lesotho","continent":"Africa","region_un":"Africa","subregion":"Southern Africa","bbox":[27.002155,-30.658799,29.435908,-28.570761],"center":{"lon":28.2190315,"lat":-29.61478},"station_count":0,"dc_fast_count":0,"ultra_count":0,"has_station_data":false,"has_ev_stock_data":false,"ev_stock_year_min":null,"ev_stock_year_max":null},{"iso_a3":"LBR","name":"Liberia","name_short":"Liberia","continent":"Africa","region_un":"Africa","subregion":"Western Africa","bbox":[-11.476186,4.347235,-7.384118,8.565396],"center":{"lon":-9.430152,"lat":6.4563155000000005},"station_count":0,"dc_fast_count":0,"ultra_count":0,"has_station_data":false,"has_ev_stock_data":false,"ev_stock_year_min":null,"ev_stock_year_max":null},{"iso_a3":"LBY","name":"Libya","name_short":"Libya","continent":"Africa","region_un":"Africa","subregion":"Northern Africa","bbox":[9.286544,19.496124,25.156261,33.181225],"center":{"lon":17.2214025,"lat":26.338674499999996},"station_count":0,"dc_fast_count":0,"ultra_count":0,"has_station_data":false,"has_ev_stock_data":false,"ev_stock_year_min":null,"ev_stock_year_max":null},{"iso_a3":"LIE","name":"Liechtenstein","name_short":"Liechtenstein","continent":"Europe","region_un":"Europe","subregion":"Western Europe","bbox":[9.475886,47.0524,9.615723,47.262801],"center":{"lon":9.5458045,"lat":47.1576005},"station_count":1,"dc_fast_count":1,"ultra_count":0,"has_station_data":true,"has_ev_stock_data":false,"ev_stock_year_min":null,"ev_stock_year_max":null},{"iso_a3":"LTU","name":"Lithuania","name_short":"Lithuania","continent":"Europe","region_un":"Europe","subregion":"Northern Europe","bbox":[20.924569,53.886841,26.80072,56.442602],"center":{"lon":23.862644500000002,"lat":55.1647215},"station_count":1,"dc_fast_count":0,"ultra_count":1,"has_station_data":true,"has_ev_stock_data":false,"ev_stock_year_min":null,"ev_stock_year_max":null},{"iso_a3":"LUX","name":"Luxembourg","name_short":"Luxembourg","continent":"Europe","region_un":"Europe","subregion":"Western Europe","bbox":[5.714927,49.441324,6.502579,50.174975],"center":{"lon":6.108753,"lat":49.8081495},"station_count":2,"dc_fast_count":1,"ultra_count":1,"has_station_data":true,"has_ev_stock_data":false,"ev_stock_year_min":null,"ev_stock_year_max":null},{"iso_a3":"MAC","name":"Macao","name_short":"Macao","continent":"Asia","region_un":"Asia","subregion":"Eastern Asia","bbox":[113.519867,22.105373,113.587494,22.220771],"center":{"lon":113.55368050000001,"lat":22.163072},"station_count":2948,"dc_fast_count":859,"ultra_count":2089,"has_station_data":true,"has_ev_stock_data":false,"ev_stock_year_min":null,"ev_stock_year_max":null},{"iso_a3":"MDG","name":"Madagascar","name_short":"Madagascar","continent":"Africa","region_un":"Africa","subregion":"Eastern Africa","bbox":[43.222911,-25.598565,50.503917,-11.943617],"center":{"lon":46.863414000000006,"lat":-18.771091},"station_count":0,"dc_fast_count":0,"ultra_count":0,"has_station_data":false,"has_ev_stock_data":false,"ev_stock_year_min":null,"ev_stock_year_max":null},{"iso_a3":"MWI","name":"Malawi","name_short":"Malawi","continent":"Africa","region_un":"Africa","subregion":"Eastern Africa","bbox":[32.663308,-17.135335,35.904299,-9.381235],"center":{"lon":34.283803500000005,"lat":-13.258285},"station_count":0,"dc_fast_count":0,"ultra_count":0,"has_station_data":false,"has_ev_stock_data":false,"ev_stock_year_min":null,"ev_stock_year_max":null},{"iso_a3":"MYS","name":"Malaysia","name_short":"Malaysia","continent":"Asia","region_un":"Asia","subregion":"South-Eastern Asia","bbox":[99.645228,0.85137,119.278087,7.35578],"center":{"lon":109.4616575,"lat":4.103575},"station_count":19,"dc_fast_count":0,"ultra_count":19,"has_station_data":true,"has_ev_stock_data":false,"ev_stock_year_min":null,"ev_stock_year_max":null},{"iso_a3":"MDV","name":"Maldives","name_short":"Maldives","continent":"Seven seas (open ocean)","region_un":"Asia","subregion":"Southern Asia","bbox":[72.684825,-0.688572,73.753184,7.107245],"center":{"lon":73.21900450000001,"lat":3.2093365},"station_count":0,"dc_fast_count":0,"ultra_count":0,"has_station_data":false,"has_ev_stock_data":false,"ev_stock_year_min":null,"ev_stock_year_max":null},{"iso_a3":"MLI","name":"Mali","name_short":"Mali","continent":"Africa","region_un":"Africa","subregion":"Western Africa","bbox":[-12.26413,10.140054,4.235638,24.995065],"center":{"lon":-4.014246,"lat":17.5675595},"station_count":0,"dc_fast_count":0,"ultra_count":0,"has_station_data":false,"has_ev_stock_data":false,"ev_stock_year_min":null,"ev_stock_year_max":null},{"iso_a3":"MLT","name":"Malta","name_short":"Malta","continent":"Europe","region_un":"Europe","subregion":"Southern Europe","bbox":[14.183604,35.801215,14.567149,36.075588],"center":{"lon":14.375376500000002,"lat":35.9384015},"station_count":0,"dc_fast_count":0,"ultra_count":0,"has_station_data":false,"has_ev_stock_data":false,"ev_stock_year_min":null,"ev_stock_year_max":null},{"iso_a3":"MHL","name":"Marshall Islands","name_short":"Marshall Is.","continent":"Oceania","region_un":"Oceania","subregion":"Micronesia","bbox":[165.282237,4.573798,172.029796,14.6105],"center":{"lon":168.65601650000002,"lat":9.592149},"station_count":0,"dc_fast_count":0,"ultra_count":0,"has_station_data":false,"has_ev_stock_data":false,"ev_stock_year_min":null,"ev_stock_year_max":null},{"iso_a3":"MRT","name":"Mauritania","name_short":"Mauritania","continent":"Africa","region_un":"Africa","subregion":"Western Africa","bbox":[-17.081175,14.734399,-4.821613,27.285416],"center":{"lon":-10.951394,"lat":21.0099075},"station_count":0,"dc_fast_count":0,"ultra_count":0,"has_station_data":false,"has_ev_stock_data":false,"ev_stock_year_min":null,"ev_stock_year_max":null},{"iso_a3":"MUS","name":"Mauritius","name_short":"Mauritius","continent":"Seven seas (open ocean)","region_un":"Africa","subregion":"Eastern Africa","bbox":[56.524181,-20.517348,63.493907,-10.323907],"center":{"lon":60.009044,"lat":-15.420627499999998},"station_count":0,"dc_fast_count":0,"ultra_count":0,"has_station_data":false,"has_ev_stock_data":false,"ev_stock_year_min":null,"ev_stock_year_max":null},{"iso_a3":"MEX","name":"Mexico","name_short":"Mexico","continent":"North America","region_un":"Americas","subregion":"Central America","bbox":[-118.368804,14.546279,-86.700592,32.712836],"center":{"lon":-102.53469799999999,"lat":23.6295575},"station_count":36,"dc_fast_count":3,"ultra_count":33,"has_station_data":true,"has_ev_stock_data":true,"ev_stock_year_min":2015,"ev_stock_year_max":2024},{"iso_a3":"MDA","name":"Moldova","name_short":"Moldova","continent":"Europe","region_un":"Europe","subregion":"Eastern Europe","bbox":[26.617889,45.461774,30.131576,48.486034],"center":{"lon":28.3747325,"lat":46.973904},"station_count":0,"dc_fast_count":0,"ultra_count":0,"has_station_data":false,"has_ev_stock_data":false,"ev_stock_year_min":null,"ev_stock_year_max":null},{"iso_a3":"MCO","name":"Monaco","name_short":"Monaco","continent":"Europe","region_un":"Europe","subregion":"Western Europe","bbox":[7.36575,43.717969,7.437454,43.763506],"center":{"lon":7.4016020000000005,"lat":43.740737499999994},"station_count":0,"dc_fast_count":0,"ultra_count":0,"has_station_data":false,"has_ev_stock_data":false,"ev_stock_year_min":null,"ev_stock_year_max":null},{"iso_a3":"MNG","name":"Mongolia","name_short":"Mongolia","continent":"Asia","region_un":"Asia","subregion":"Eastern Asia","bbox":[87.735709,41.586145,119.907027,52.129584],"center":{"lon":103.821368,"lat":46.857864500000005},"station_count":0,"dc_fast_count":0,"ultra_count":0,"has_station_data":false,"has_ev_stock_data":false,"ev_stock_year_min":null,"ev_stock_year_max":null},{"iso_a3":"MNE","name":"Montenegro","name_short":"Montenegro","continent":"Europe","region_un":"Europe","subregion":"Southern Europe","bbox":[18.433531,41.852362,20.355171,43.547886],"center":{"lon":19.394351,"lat":42.700124},"station_count":0,"dc_fast_count":0,"ultra_count":0,"has_station_data":false,"has_ev_stock_data":false,"ev_stock_year_min":null,"ev_stock_year_max":null},{"iso_a3":"MSR","name":"Montserrat","name_short":"Montserrat","continent":"North America","region_un":"Americas","subregion":"Caribbean","bbox":[-62.230133,16.67536,-62.140533,16.819322],"center":{"lon":-62.185333,"lat":16.747341},"station_count":0,"dc_fast_count":0,"ultra_count":0,"has_station_data":false,"has_ev_stock_data":false,"ev_stock_year_min":null,"ev_stock_year_max":null},{"iso_a3":"MAR","name":"Morocco","name_short":"Morocco","continent":"Africa","region_un":"Africa","subregion":"Northern Africa","bbox":[-17.013743,21.419971,-1.031999,35.926519],"center":{"lon":-9.022871,"lat":28.673245},"station_count":6,"dc_fast_count":6,"ultra_count":0,"has_station_data":true,"has_ev_stock_data":false,"ev_stock_year_min":null,"ev_stock_year_max":null},{"iso_a3":"MOZ","name":"Mozambique","name_short":"Mozambique","continent":"Africa","region_un":"Africa","subregion":"Eastern Africa","bbox":[30.213845,-26.860272,40.847992,-10.469008],"center":{"lon":35.5309185,"lat":-18.66464},"station_count":0,"dc_fast_count":0,"ultra_count":0,"has_station_data":false,"has_ev_stock_data":false,"ev_stock_year_min":null,"ev_stock_year_max":null},{"iso_a3":"MMR","name":"Myanmar","name_short":"Myanmar","continent":"Asia","region_un":"Asia","subregion":"South-Eastern Asia","bbox":[92.174973,9.790717,101.173855,28.538466],"center":{"lon":96.674414,"lat":19.1645915},"station_count":0,"dc_fast_count":0,"ultra_count":0,"has_station_data":false,"has_ev_stock_data":false,"ev_stock_year_min":null,"ev_stock_year_max":null},{"iso_a3":"NAM","name":"Namibia","name_short":"Namibia","continent":"Africa","region_un":"Africa","subregion":"Southern Africa","bbox":[11.717621,-28.959368,25.259781,-16.951057],"center":{"lon":18.488701,"lat":-22.955212500000002},"station_count":0,"dc_fast_count":0,"ultra_count":0,"has_station_data":false,"has_ev_stock_data":false,"ev_stock_year_min":null,"ev_stock_year_max":null},{"iso_a3":"NRU","name":"Nauru","name_short":"Nauru","continent":"Oceania","region_un":"Oceania","subregion":"Micronesia","bbox":[166.906993,-0.551853,166.958263,-0.490411],"center":{"lon":166.932628,"lat":-0.521132},"station_count":0,"dc_fast_count":0,"ultra_count":0,"has_station_data":false,"has_ev_stock_data":false,"ev_stock_year_min":null,"ev_stock_year_max":null},{"iso_a3":"NPL","name":"Nepal","name_short":"Nepal","continent":"Asia","region_un":"Asia","subregion":"Southern Asia","bbox":[80.030288,26.343768,88.169067,30.416904],"center":{"lon":84.0996775,"lat":28.380336},"station_count":0,"dc_fast_count":0,"ultra_count":0,"has_station_data":false,"has_ev_stock_data":false,"ev_stock_year_min":null,"ev_stock_year_max":null},{"iso_a3":"NLD","name":"Netherlands","name_short":"Netherlands","continent":"Europe","region_un":"Europe","subregion":"Western Europe","bbox":[-68.417388,12.02204,7.198506,53.558092],"center":{"lon":-30.609441,"lat":32.790066},"station_count":0,"dc_fast_count":0,"ultra_count":0,"has_station_data":false,"has_ev_stock_data":true,"ev_stock_year_min":2010,"ev_stock_year_max":2024},{"iso_a3":"NCL","name":"New Caledonia","name_short":"New Caledonia","continent":"Oceania","region_un":"Oceania","subregion":"Melanesia","bbox":[163.615733,-22.670668,171.343765,-19.623712],"center":{"lon":167.479749,"lat":-21.147190000000002},"station_count":0,"dc_fast_count":0,"ultra_count":0,"has_station_data":false,"has_ev_stock_data":false,"ev_stock_year_min":null,"ev_stock_year_max":null},{"iso_a3":"NZL","name":"New Zealand","name_short":"New Zealand","continent":"Oceania","region_un":"Oceania","subregion":"Australia and New Zealand","bbox":[-177.957997,-52.600313,178.843923,-8.543227],"center":{"lon":0.4429629999999918,"lat":-30.57177},"station_count":0,"dc_fast_count":0,"ultra_count":0,"has_station_data":false,"has_ev_stock_data":true,"ev_stock_year_min":2011,"ev_stock_year_max":2024},{"iso_a3":"NIC","name":"Nicaragua","name_short":"Nicaragua","continent":"North America","region_un":"Americas","subregion":"Central America","bbox":[-87.685821,10.713482,-82.725697,15.03097],"center":{"lon":-85.205759,"lat":12.872226000000001},"station_count":0,"dc_fast_count":0,"ultra_count":0,"has_station_data":false,"has_ev_stock_data":false,"ev_stock_year_min":null,"ev_stock_year_max":null},{"iso_a3":"NER","name":"Niger","name_short":"Niger","continent":"Africa","region_un":"Africa","subregion":"Western Africa","bbox":[0.152941,11.695773,15.970322,23.517351],"center":{"lon":8.061631499999999,"lat":17.606562},"station_count":0,"dc_fast_count":0,"ultra_count":0,"has_station_data":false,"has_ev_stock_data":false,"ev_stock_year_min":null,"ev_stock_year_max":null},{"iso_a3":"NGA","name":"Nigeria","name_short":"Nigeria","continent":"Africa","region_un":"Africa","subregion":"Western Africa","bbox":[2.671082,4.272162,14.669936,13.880291],"center":{"lon":8.670509,"lat":9.0762265},"station_count":0,"dc_fast_count":0,"ultra_count":0,"has_station_data":false,"has_ev_stock_data":false,"ev_stock_year_min":null,"ev_stock_year_max":null},{"iso_a3":"NIU","name":"Niue","name_short":"Niue","continent":"Oceania","region_un":"Oceania","subregion":"Polynesia","bbox":[-169.950429,-19.142755,-169.782908,-18.964044],"center":{"lon":-169.8666685,"lat":-19.0533995},"station_count":32,"dc_fast_count":10,"ultra_count":22,"has_station_data":true,"has_ev_stock_data":false,"ev_stock_year_min":null,"ev_stock_year_max":null},{"iso_a3":"NFK","name":"Norfolk Island","name_short":"Norfolk Island","continent":"Oceania","region_un":"Oceania","subregion":"Australia and New Zealand","bbox":[167.91212,-29.080011,167.996349,-28.997491],"center":{"lon":167.95423449999998,"lat":-29.038750999999998},"station_count":161,"dc_fast_count":40,"ultra_count":121,"has_station_data":true,"has_ev_stock_data":false,"ev_stock_year_min":null,"ev_stock_year_max":null},{"iso_a3":"MKD","name":"North Macedonia","name_short":"North Macedonia","continent":"Europe","region_un":"Europe","subregion":"Southern Europe","bbox":[20.444157,40.849394,23.009582,42.370335],"center":{"lon":21.7268695,"lat":41.6098645},"station_count":0,"dc_fast_count":0,"ultra_count":0,"has_station_data":false,"has_ev_stock_data":false,"ev_stock_year_min":null,"ev_stock_year_max":null},{"iso_a3":"MNP","name":"Northern Mariana Islands","name_short":"N. Mariana Is.","continent":"Oceania","region_un":"Oceania","subregion":"Micronesia","bbox":[144.90211,14.110663,145.868907,20.555406],"center":{"lon":145.38550850000001,"lat":17.3330345},"station_count":0,"dc_fast_count":0,"ultra_count":0,"has_station_data":false,"has_ev_stock_data":false,"ev_stock_year_min":null,"ev_stock_year_max":null},{"iso_a3":"OMN","name":"Oman","name_short":"Oman","continent":"Asia","region_un":"Asia","subregion":"Western Asia","bbox":[51.978615,16.642401,59.844574,26.385972],"center":{"lon":55.9115945,"lat":21.5141865},"station_count":0,"dc_fast_count":0,"ultra_count":0,"has_station_data":false,"has_ev_stock_data":false,"ev_stock_year_min":null,"ev_stock_year_max":null},{"iso_a3":"PAK","name":"Pakistan","name_short":"Pakistan","continent":"Asia","region_un":"Asia","subregion":"Southern Asia","bbox":[60.844379,23.694525,77.048971,37.054484],"center":{"lon":68.946675,"lat":30.3745045},"station_count":0,"dc_fast_count":0,"ultra_count":0,"has_station_data":false,"has_ev_stock_data":false,"ev_stock_year_min":null,"ev_stock_year_max":null},{"iso_a3":"PLW","name":"Palau","name_short":"Palau","continent":"Oceania","region_un":"Oceania","subregion":"Micronesia","bbox":[131.131114,2.949042,134.727343,8.096618],"center":{"lon":132.9292285,"lat":5.52283},"station_count":0,"dc_fast_count":0,"ultra_count":0,"has_station_data":false,"has_ev_stock_data":false,"ev_stock_year_min":null,"ev_stock_year_max":null},{"iso_a3":"PSE","name":"Palestine","name_short":"Palestine","continent":"Asia","region_un":"Asia","subregion":"Western Asia","bbox":[34.200269,31.211449,35.572536,32.54264],"center":{"lon":34.8864025,"lat":31.8770445},"station_count":25,"dc_fast_count":0,"ultra_count":25,"has_station_data":true,"has_ev_stock_data":false,"ev_stock_year_min":null,"ev_stock_year_max":null},{"iso_a3":"PAN","name":"Panama","name_short":"Panama","continent":"North America","region_un":"Americas","subregion":"Central America","bbox":[-83.053246,7.205715,-77.16327,9.629292],"center":{"lon":-80.108258,"lat":8.417503499999999},"station_count":0,"dc_fast_count":0,"ultra_count":0,"has_station_data":false,"has_ev_stock_data":false,"ev_stock_year_min":null,"ev_stock_year_max":null},{"iso_a3":"PNG","name":"Papua New Guinea","name_short":"Papua New Guinea","continent":"Oceania","region_un":"Oceania","subregion":"Melanesia","bbox":[140.849211,-11.636326,155.96754,-1.346368],"center":{"lon":148.4083755,"lat":-6.491347},"station_count":0,"dc_fast_count":0,"ultra_count":0,"has_station_data":false,"has_ev_stock_data":false,"ev_stock_year_min":null,"ev_stock_year_max":null},{"iso_a3":"PRY","name":"Paraguay","name_short":"Paraguay","continent":"South America","region_un":"Americas","subregion":"South America","bbox":[-62.650357,-27.586842,-54.245289,-19.286729],"center":{"lon":-58.447823,"lat":-23.4367855},"station_count":0,"dc_fast_count":0,"ultra_count":0,"has_station_data":false,"has_ev_stock_data":false,"ev_stock_year_min":null,"ev_stock_year_max":null},{"iso_a3":"PER","name":"Peru","name_short":"Peru","continent":"South America","region_un":"Americas","subregion":"South America","bbox":[-81.337558,-18.337746,-68.684252,-0.029093],"center":{"lon":-75.01090500000001,"lat":-9.1834195},"station_count":0,"dc_fast_count":0,"ultra_count":0,"has_station_data":false,"has_ev_stock_data":false,"ev_stock_year_min":null,"ev_stock_year_max":null},{"iso_a3":"PHL","name":"Philippines","name_short":"Philippines","continent":"Asia","region_un":"Asia","subregion":"South-Eastern Asia","bbox":[116.954926,4.655707,126.617686,21.122382],"center":{"lon":121.786306,"lat":12.8890445},"station_count":4,"dc_fast_count":0,"ultra_count":4,"has_station_data":true,"has_ev_stock_data":false,"ev_stock_year_min":null,"ev_stock_year_max":null},{"iso_a3":"PCN","name":"Pitcairn Islands","name_short":"Pitcairn Is.","continent":"Oceania","region_un":"Oceania","subregion":"Polynesia","bbox":[-130.753082,-25.077081,-124.778066,-23.924412],"center":{"lon":-127.765574,"lat":-24.500746499999998},"station_count":0,"dc_fast_count":0,"ultra_count":0,"has_station_data":false,"has_ev_stock_data":false,"ev_stock_year_min":null,"ev_stock_year_max":null},{"iso_a3":"POL","name":"Poland","name_short":"Poland","continent":"Europe","region_un":"Europe","subregion":"Eastern Europe","bbox":[14.123923,48.994013,24.143156,54.838324],"center":{"lon":19.1335395,"lat":51.9161685},"station_count":25,"dc_fast_count":3,"ultra_count":22,"has_station_data":true,"has_ev_stock_data":true,"ev_stock_year_min":2019,"ev_stock_year_max":2024},{"iso_a3":"PRT","name":"Portugal","name_short":"Portugal","continent":"Europe","region_un":"Europe","subregion":"Southern Europe","bbox":[-31.284901,30.029242,-6.205947,42.15363],"center":{"lon":-18.745424,"lat":36.091436},"station_count":9,"dc_fast_count":0,"ultra_count":9,"has_station_data":true,"has_ev_stock_data":true,"ev_stock_year_min":2013,"ev_stock_year_max":2024},{"iso_a3":"PRI","name":"Puerto Rico","name_short":"Puerto Rico","continent":"North America","region_un":"Americas","subregion":"Caribbean","bbox":[-67.937815,17.922919,-65.244618,18.522773],"center":{"lon":-66.5912165,"lat":18.222846},"station_count":0,"dc_fast_count":0,"ultra_count":0,"has_station_data":false,"has_ev_stock_data":false,"ev_stock_year_min":null,"ev_stock_year_max":null},{"iso_a3":"QAT","name":"Qatar","name_short":"Qatar","continent":"Asia","region_un":"Asia","subregion":"Western Asia","bbox":[50.750987,24.559872,51.616547,26.160102],"center":{"lon":51.183767,"lat":25.359986999999997},"station_count":1,"dc_fast_count":0,"ultra_count":1,"has_station_data":true,"has_ev_stock_data":false,"ev_stock_year_min":null,"ev_stock_year_max":null},{"iso_a3":"CPV","name":"Republic of Cabo Verde","name_short":"Cabo Verde","continent":"Africa","region_un":"Africa","subregion":"Western Africa","bbox":[-25.360422,14.803941,-22.666575,17.196601],"center":{"lon":-24.0134985,"lat":16.000271},"station_count":0,"dc_fast_count":0,"ultra_count":0,"has_station_data":false,"has_ev_stock_data":false,"ev_stock_year_min":null,"ev_stock_year_max":null},{"iso_a3":"KOR","name":"Republic of Korea","name_short":"South Korea","continent":"Asia","region_un":"Asia","subregion":"Eastern Asia","bbox":[124.613617,33.197577,131.862522,38.624335],"center":{"lon":128.2380695,"lat":35.910956},"station_count":181,"dc_fast_count":24,"ultra_count":157,"has_station_data":true,"has_ev_stock_data":true,"ev_stock_year_min":2015,"ev_stock_year_max":2024},{"iso_a3":"COG","name":"Republic of the Congo","name_short":"Congo","continent":"Africa","region_un":"Africa","subregion":"Middle Africa","bbox":[11.114016,-5.019631,18.642407,3.708276],"center":{"lon":14.878211499999999,"lat":-0.6556775000000001},"station_count":0,"dc_fast_count":0,"ultra_count":0,"has_station_data":false,"has_ev_stock_data":false,"ev_stock_year_min":null,"ev_stock_year_max":null},{"iso_a3":"ROU","name":"Romania","name_short":"Romania","continent":"Europe","region_un":"Europe","subregion":"Eastern Europe","bbox":[20.242826,43.65005,29.699555,48.274832],"center":{"lon":24.9711905,"lat":45.962441},"station_count":13,"dc_fast_count":0,"ultra_count":13,"has_station_data":true,"has_ev_stock_data":false,"ev_stock_year_min":null,"ev_stock_year_max":null},{"iso_a3":"RUS","name":"Russian Federation","name_short":"Russia","continent":"Europe","region_un":"Europe","subregion":"Eastern Europe","bbox":[-180.0,41.192681,180.0,81.85871],"center":{"lon":0.0,"lat":61.5256955},"station_count":0,"dc_fast_count":0,"ultra_count":0,"has_station_data":false,"has_ev_stock_data":false,"ev_stock_year_min":null,"ev_stock_year_max":null},{"iso_a3":"RWA","name":"Rwanda","name_short":"Rwanda","continent":"Africa","region_un":"Africa","subregion":"Eastern Africa","bbox":[28.857236,-2.826855,30.887809,-1.058694],"center":{"lon":29.872522500000002,"lat":-1.9427745},"station_count":0,"dc_fast_count":0,"ultra_count":0,"has_station_data":false,"has_ev_stock_data":false,"ev_stock_year_min":null,"ev_stock_year_max":null},{"iso_a3":"SHN","name":"Saint Helena","name_short":"Saint Helena","continent":"Seven seas (open ocean)","region_un":"Africa","subregion":"Western Africa","bbox":[-14.417714,-40.397882,-5.65038,-7.877862],"center":{"lon":-10.034047000000001,"lat":-24.137872},"station_count":0,"dc_fast_count":0,"ultra_count":0,"has_station_data":false,"has_ev_stock_data":false,"ev_stock_year_min":null,"ev_stock_year_max":null},{"iso_a3":"KNA","name":"Saint Kitts and Nevis","name_short":"St. Kitts and Nevis","continent":"North America","region_un":"Americas","subregion":"Caribbean","bbox":[-62.861073,17.100531,-62.536773,17.415839],"center":{"lon":-62.69892299999999,"lat":17.258184999999997},"station_count":0,"dc_fast_count":0,"ultra_count":0,"has_station_data":false,"has_ev_stock_data":false,"ev_stock_year_min":null,"ev_stock_year_max":null},{"iso_a3":"LCA","name":"Saint Lucia","name_short":"Saint Lucia","continent":"North America","region_un":"Americas","subregion":"Caribbean","bbox":[-61.078521,13.714667,-60.882965,14.111884],"center":{"lon":-60.980743000000004,"lat":13.913275500000001},"station_count":0,"dc_fast_count":0,"ultra_count":0,"has_station_data":false,"has_ev_stock_data":false,"ev_stock_year_min":null,"ev_stock_year_max":null},{"iso_a3":"SPM","name":"Saint Pierre and Miquelon","name_short":"St. Pierre and Miquelon","continent":"North America","region_un":"Americas","subregion":"Northern America","bbox":[-56.396596,46.752753,-56.144765,47.141262],"center":{"lon":-56.2706805,"lat":46.9470075},"station_count":0,"dc_fast_count":0,"ultra_count":0,"has_station_data":false,"has_ev_stock_data":false,"ev_stock_year_min":null,"ev_stock_year_max":null},{"iso_a3":"VCT","name":"Saint Vincent and the Grenadines","name_short":"St. Vin. and Gren.","continent":"North America","region_un":"Americas","subregion":"Caribbean","bbox":[-61.459828,12.58515,-61.123931,13.380764],"center":{"lon":-61.2918795,"lat":12.982956999999999},"station_count":0,"dc_fast_count":0,"ultra_count":0,"has_station_data":false,"has_ev_stock_data":false,"ev_stock_year_min":null,"ev_stock_year_max":null},{"iso_a3":"BLM","name":"Saint-Barthélemy","name_short":"St-Barthélemy","continent":"North America","region_un":"Americas","subregion":"Caribbean","bbox":[-62.86734,17.881985,-62.791656,17.929145],"center":{"lon":-62.829498,"lat":17.905565},"station_count":0,"dc_fast_count":0,"ultra_count":0,"has_station_data":false,"has_ev_stock_data":false,"ev_stock_year_min":null,"ev_stock_year_max":null},{"iso_a3":"MAF","name":"Saint-Martin","name_short":"St-Martin","continent":"North America","region_un":"Americas","subregion":"Caribbean","bbox":[-63.14684,18.033391,-63.010732,18.122138],"center":{"lon":-63.078785999999994,"lat":18.0777645},"station_count":0,"dc_fast_count":0,"ultra_count":0,"has_station_data":false,"has_ev_stock_data":false,"ev_stock_year_min":null,"ev_stock_year_max":null},{"iso_a3":"WSM","name":"Samoa","name_short":"Samoa","continent":"Oceania","region_un":"Oceania","subregion":"Polynesia","bbox":[-172.782582,-14.05283,-171.437693,-13.462823],"center":{"lon":-172.1101375,"lat":-13.7578265},"station_count":0,"dc_fast_count":0,"ultra_count":0,"has_station_data":false,"has_ev_stock_data":false,"ev_stock_year_min":null,"ev_stock_year_max":null},{"iso_a3":"SMR","name":"San Marino","name_short":"San Marino","continent":"Europe","region_un":"Europe","subregion":"Southern Europe","bbox":[12.385629,43.892056,12.492392,43.982567],"center":{"lon":12.4390105,"lat":43.9373115},"station_count":0,"dc_fast_count":0,"ultra_count":0,"has_station_data":false,"has_ev_stock_data":false,"ev_stock_year_min":null,"ev_stock_year_max":null},{"iso_a3":"SAU","name":"Saudi Arabia","name_short":"Saudi Arabia","continent":"Asia","region_un":"Asia","subregion":"Western Asia","bbox":[34.572765,16.370958,55.637565,32.121348],"center":{"lon":45.105165,"lat":24.246153},"station_count":6,"dc_fast_count":0,"ultra_count":6,"has_station_data":true,"has_ev_stock_data":false,"ev_stock_year_min":null,"ev_stock_year_max":null},{"iso_a3":"SEN","name":"Senegal","name_short":"Senegal","continent":"Africa","region_un":"Africa","subregion":"Western Africa","bbox":[-17.536041,12.305607,-11.377776,16.691385],"center":{"lon":-14.4569085,"lat":14.498496},"station_count":0,"dc_fast_count":0,"ultra_count":0,"has_station_data":false,"has_ev_stock_data":false,"ev_stock_year_min":null,"ev_stock_year_max":null},{"iso_a3":"SRB","name":"Serbia","name_short":"Serbia","continent":"Europe","region_un":"Europe","subregion":"Southern Europe","bbox":[18.844978,42.234945,22.984571,46.173875],"center":{"lon":20.9147745,"lat":44.20441},"station_count":3,"dc_fast_count":2,"ultra_count":1,"has_station_data":true,"has_ev_stock_data":false,"ev_stock_year_min":null,"ev_stock_year_max":null},{"iso_a3":"SYC","name":"Seychelles","name_short":"Seychelles","continent":"Seven seas (open ocean)","region_un":"Africa","subregion":"Eastern Africa","bbox":[46.207367,-9.755548,56.287446,-3.791111],"center":{"lon":51.2474065,"lat":-6.773329499999999},"station_count":0,"dc_fast_count":0,"ultra_count":0,"has_station_data":false,"has_ev_stock_data":false,"ev_stock_year_min":null,"ev_stock_year_max":null},{"iso_a3":"SLE","name":"Sierra Leone","name_short":"Sierra Leone","continent":"Africa","region_un":"Africa","subregion":"Western Africa","bbox":[-13.301096,6.91942,-10.282236,9.996006],"center":{"lon":-11.791666,"lat":8.457713},"station_count":0,"dc_fast_count":0,"ultra_count":0,"has_station_data":false,"has_ev_stock_data":false,"ev_stock_year_min":null,"ev_stock_year_max":null},{"iso_a3":"SGP","name":"Singapore","name_short":"Singapore","continent":"Asia","region_un":"Asia","subregion":"South-Eastern Asia","bbox":[103.640391,1.264309,104.003429,1.448635],"center":{"lon":103.82191,"lat":1.356472},"station_count":16,"dc_fast_count":0,"ultra_count":16,"has_station_data":true,"has_ev_stock_data":false,"ev_stock_year_min":null,"ev_stock_year_max":null},{"iso_a3":"SXM","name":"Sint Maarten","name_short":"Sint Maarten","continent":"North America","region_un":"Americas","subregion":"Caribbean","bbox":[-63.118886,18.01911,-63.017569,18.06212],"center":{"lon":-63.068227500000006,"lat":18.040615000000003},"station_count":0,"dc_fast_count":0,"ultra_count":0,"has_station_data":false,"has_ev_stock_data":false,"ev_stock_year_min":null,"ev_stock_year_max":null},{"iso_a3":"SVK","name":"Slovakia","name_short":"Slovakia","continent":"Europe","region_un":"Europe","subregion":"Eastern Europe","bbox":[16.84448,47.750006,22.539637,49.60178],"center":{"lon":19.6920585,"lat":48.675893},"station_count":6,"dc_fast_count":2,"ultra_count":4,"has_station_data":true,"has_ev_stock_data":false,"ev_stock_year_min":null,"ev_stock_year_max":null},{"iso_a3":"SVN","name":"Slovenia","name_short":"Slovenia","continent":"Europe","region_un":"Europe","subregion":"Southern Europe","bbox":[13.365261,45.423637,16.515302,46.863962],"center":{"lon":14.9402815,"lat":46.1437995},"station_count":9,"dc_fast_count":2,"ultra_count":7,"has_station_data":true,"has_ev_stock_data":false,"ev_stock_year_min":null,"ev_stock_year_max":null},{"iso_a3":"SLB","name":"Solomon Islands","name_short":"Solomon Is.","continent":"Oceania","region_un":"Oceania","subregion":"Melanesia","bbox":[155.507986,-12.290623,168.825857,-6.599867],"center":{"lon":162.1669215,"lat":-9.445245},"station_count":0,"dc_fast_count":0,"ultra_count":0,"has_station_data":false,"has_ev_stock_data":false,"ev_stock_year_min":null,"ev_stock_year_max":null},{"iso_a3":"SOM","name":"Somalia","name_short":"Somalia","continent":"Africa","region_un":"Africa","subregion":"Eastern Africa","bbox":[40.965385,-1.696303,51.417038,11.989119],"center":{"lon":46.191211499999994,"lat":5.146408},"station_count":0,"dc_fast_count":0,"ultra_count":0,"has_station_data":false,"has_ev_stock_data":false,"ev_stock_year_min":null,"ev_stock_year_max":null},{"iso_a3":"ZAF","name":"South Africa","name_short":"South Africa","continent":"Africa","region_un":"Africa","subregion":"Southern Africa","bbox":[16.469981,-46.965753,37.977794,-22.126452],"center":{"lon":27.223887500000004,"lat":-34.5461025},"station_count":0,"dc_fast_count":0,"ultra_count":0,"has_station_data":false,"has_ev_stock_data":false,"ev_stock_year_min":null,"ev_stock_year_max":null},{"iso_a3":"SGS","name":"South Georgia and the Islands","name_short":"S. Geo. and the Is.","continent":"Seven seas (open ocean)","region_un":"Americas","subregion":"Seven seas (open ocean)","bbox":[-38.087026,-59.472752,-26.239329,-53.972426],"center":{"lon":-32.1631775,"lat":-56.722589},"station_count":0,"dc_fast_count":0,"ultra_count":0,"has_station_data":false,"has_ev_stock_data":false,"ev_stock_year_min":null,"ev_stock_year_max":null},{"iso_a3":"SSD","name":"South Sudan","name_short":"S. Sudan","continent":"Africa","region_un":"Africa","subregion":"Eastern Africa","bbox":[24.121556,3.490202,35.920835,12.216155],"center":{"lon":30.021195499999997,"lat":7.8531785},"station_count":0,"dc_fast_count":0,"ultra_count":0,"has_station_data":false,"has_ev_stock_data":false,"ev_stock_year_min":null,"ev_stock_year_max":null},{"iso_a3":"ESP","name":"Spain","name_short":"Spain","continent":"Europe","region_un":"Europe","subregion":"Southern Europe","bbox":[-18.167226,27.642239,4.337087,43.793443],"center":{"lon":-6.9150694999999995,"lat":35.717841},"station_count":102,"dc_fast_count":5,"ultra_count":97,"has_station_data":true,"has_ev_stock_data":true,"ev_stock_year_min":2011,"ev_stock_year_max":2024},{"iso_a3":"LKA","name":"Sri Lanka","name_short":"Sri Lanka","continent":"Asia","region_un":"Asia","subregion":"Southern Asia","bbox":[79.655772,5.923733,81.89031,9.829576],"center":{"lon":80.773041,"lat":7.8766545},"station_count":0,"dc_fast_count":0,"ultra_count":0,"has_station_data":false,"has_ev_stock_data":false,"ev_stock_year_min":null,"ev_stock_year_max":null},{"iso_a3":"SDN","name":"Sudan","name_short":"Sudan","continent":"Africa","region_un":"Africa","subregion":"Northern Africa","bbox":[21.809449,8.681642,38.603852,22.226965],"center":{"lon":30.206650500000002,"lat":15.4543035},"station_count":0,"dc_fast_count":0,"ultra_count":0,"has_station_data":false,"has_ev_stock_data":false,"ev_stock_year_min":null,"ev_stock_year_max":null},{"iso_a3":"SUR","name":"Suriname","name_short":"Suriname","continent":"South America","region_un":"Americas","subregion":"South America","bbox":[-58.067691,1.833507,-53.986357,6.011574],"center":{"lon":-56.027024,"lat":3.9225405},"station_count":0,"dc_fast_count":0,"ultra_count":0,"has_station_data":false,"has_ev_stock_data":false,"ev_stock_year_min":null,"ev_stock_year_max":null},{"iso_a3":"SWE","name":"Sweden","name_short":"Sweden","continent":"Europe","region_un":"Europe","subregion":"Northern Europe","bbox":[11.108165,55.342678,24.163414,69.036356],"center":{"lon":17.6357895,"lat":62.189516999999995},"station_count":95,"dc_fast_count":5,"ultra_count":90,"has_station_data":true,"has_ev_stock_data":true,"ev_stock_year_min":2012,"ev_stock_year_max":2024},{"iso_a3":"CHE","name":"Switzerland","name_short":"Switzerland","continent":"Europe","region_un":"Europe","subregion":"Western Europe","bbox":[5.954809,45.820718,10.466627,47.801166],"center":{"lon":8.210718,"lat":46.810942},"station_count":38,"dc_fast_count":14,"ultra_count":24,"has_station_data":true,"has_ev_stock_data":true,"ev_stock_year_min":2011,"ev_stock_year_max":2024},{"iso_a3":"SYR","name":"Syria","name_short":"Syria","continent":"Asia","region_un":"Asia","subregion":"Western Asia","bbox":[35.723399,32.313042,42.377186,37.324906],"center":{"lon":39.0502925,"lat":34.818974},"station_count":0,"dc_fast_count":0,"ultra_count":0,"has_station_data":false,"has_ev_stock_data":false,"ev_stock_year_min":null,"ev_stock_year_max":null},{"iso_a3":"STP","name":"São Tomé and Principe","name_short":"São Tomé and Principe","continent":"Africa","region_un":"Africa","subregion":"Middle Africa","bbox":[6.461681,0.024115,7.462738,1.699774],"center":{"lon":6.9622095,"lat":0.8619445},"station_count":0,"dc_fast_count":0,"ultra_count":0,"has_station_data":false,"has_ev_stock_data":false,"ev_stock_year_min":null,"ev_stock_year_max":null},{"iso_a3":"TWN","name":"Taiwan","name_short":"Taiwan","continent":"Asia","region_un":"Asia","subregion":"Eastern Asia","bbox":[118.279552,21.904608,122.005382,25.287421],"center":{"lon":120.142467,"lat":23.5960145},"station_count":121,"dc_fast_count":24,"ultra_count":97,"has_station_data":true,"has_ev_stock_data":false,"ev_stock_year_min":null,"ev_stock_year_max":null},{"iso_a3":"TJK","name":"Tajikistan","name_short":"Tajikistan","continent":"Asia","region_un":"Asia","subregion":"Central Asia","bbox":[67.34269,36.678641,75.164125,41.039977],"center":{"lon":71.25340750000001,"lat":38.859308999999996},"station_count":0,"dc_fast_count":0,"ultra_count":0,"has_station_data":false,"has_ev_stock_data":false,"ev_stock_year_min":null,"ev_stock_year_max":null},{"iso_a3":"TZA","name":"Tanzania","name_short":"Tanzania","continent":"Africa","region_un":"Africa","subregion":"Eastern Africa","bbox":[29.321032,-11.731272,40.449392,-0.98583],"center":{"lon":34.885212,"lat":-6.358551},"station_count":0,"dc_fast_count":0,"ultra_count":0,"has_station_data":false,"has_ev_stock_data":false,"ev_stock_year_min":null,"ev_stock_year_max":null},{"iso_a3":"THA","name":"Thailand","name_short":"Thailand","continent":"Asia","region_un":"Asia","subregion":"South-Eastern Asia","bbox":[97.351401,5.62989,105.650998,20.445006],"center":{"lon":101.5011995,"lat":13.037448},"station_count":44,"dc_fast_count":0,"ultra_count":44,"has_station_data":true,"has_ev_stock_data":false,"ev_stock_year_min":null,"ev_stock_year_max":null},{"iso_a3":"GMB","name":"The Gambia","name_short":"Gambia","continent":"Africa","region_un":"Africa","subregion":"Western Africa","bbox":[-16.829701,13.065009,-13.818713,13.819984],"center":{"lon":-15.324207000000001,"lat":13.4424965},"station_count":0,"dc_fast_count":0,"ultra_count":0,"has_station_data":false,"has_ev_stock_data":false,"ev_stock_year_min":null,"ev_stock_year_max":null},{"iso_a3":"TLS","name":"Timor-Leste","name_short":"Timor-Leste","continent":"Asia","region_un":"Asia","subregion":"South-Eastern Asia","bbox":[124.03004,-9.501228,127.313243,-8.135024],"center":{"lon":125.67164149999999,"lat":-8.818126},"station_count":0,"dc_fast_count":0,"ultra_count":0,"has_station_data":false,"has_ev_stock_data":false,"ev_stock_year_min":null,"ev_stock_year_max":null},{"iso_a3":"TGO","name":"Togo","name_short":"Togo","continent":"Africa","region_un":"Africa","subregion":"Western Africa","bbox":[-0.166109,6.100491,1.782351,11.13498],"center":{"lon":0.808121,"lat":8.6177355},"station_count":0,"dc_fast_count":0,"ultra_count":0,"has_station_data":false,"has_ev_stock_data":false,"ev_stock_year_min":null,"ev_stock_year_max":null},{"iso_a3":"TON","name":"Tonga","name_short":"Tonga","continent":"Oceania","region_un":"Oceania","subregion":"Polynesia","bbox":[-176.219309,-22.3388,-173.914255,-15.559503],"center":{"lon":-175.066782,"lat":-18.9491515},"station_count":0,"dc_fast_count":0,"ultra_count":0,"has_station_data":false,"has_ev_stock_data":false,"ev_stock_year_min":null,"ev_stock_year_max":null},{"iso_a3":"TTO","name":"Trinidad and Tobago","name_short":"Trinidad and Tobago","continent":"North America","region_un":"Americas","subregion":"Caribbean","bbox":[-61.9287,10.04206,-60.522084,11.35106],"center":{"lon":-61.225392,"lat":10.69656},"station_count":0,"dc_fast_count":0,"ultra_count":0,"has_station_data":false,"has_ev_stock_data":false,"ev_stock_year_min":null,"ev_stock_year_max":null},{"iso_a3":"TUN","name":"Tunisia","name_short":"Tunisia","continent":"Africa","region_un":"Africa","subregion":"Northern Africa","bbox":[7.479832,30.228905,11.564131,37.345201],"center":{"lon":9.521981499999999,"lat":33.787053},"station_count":0,"dc_fast_count":0,"ultra_count":0,"has_station_data":false,"has_ev_stock_data":false,"ev_stock_year_min":null,"ev_stock_year_max":null},{"iso_a3":"TUR","name":"Turkey","name_short":"Turkey","continent":"Asia","region_un":"Asia","subregion":"Western Asia","bbox":[25.663259,35.819779,44.806993,42.098782],"center":{"lon":35.235126,"lat":38.9592805},"station_count":29,"dc_fast_count":0,"ultra_count":29,"has_station_data":true,"has_ev_stock_data":true,"ev_stock_year_min":2016,"ev_stock_year_max":2024},{"iso_a3":"TKM","name":"Turkmenistan","name_short":"Turkmenistan","continent":"Asia","region_un":"Asia","subregion":"Central Asia","bbox":[52.437671,35.140647,66.645782,42.791188],"center":{"lon":59.541726499999996,"lat":38.9659175},"station_count":0,"dc_fast_count":0,"ultra_count":0,"has_station_data":false,"has_ev_stock_data":false,"ev_stock_year_min":null,"ev_stock_year_max":null},{"iso_a3":"TCA","name":"Turks and Caicos Islands","name_short":"Turks and Caicos Is.","continent":"North America","region_un":"Americas","subregion":"Caribbean","bbox":[-72.481313,21.290107,-71.128896,21.959215],"center":{"lon":-71.8051045,"lat":21.624661},"station_count":0,"dc_fast_count":0,"ultra_count":0,"has_station_data":false,"has_ev_stock_data":false,"ev_stock_year_min":null,"ev_stock_year_max":null},{"iso_a3":"TUV","name":"Tuvalu","name_short":"Tuvalu","continent":"Oceania","region_un":"Oceania","subregion":"Polynesia","bbox":[176.125255,-9.420668,179.906749,-5.677504],"center":{"lon":178.01600200000001,"lat":-7.549085999999999},"station_count":0,"dc_fast_count":0,"ultra_count":0,"has_station_data":false,"has_ev_stock_data":false,"ev_stock_year_min":null,"ev_stock_year_max":null},{"iso_a3":"UGA","name":"Uganda","name_short":"Uganda","continent":"Africa","region_un":"Africa","subregion":"Eastern Africa","bbox":[29.54846,-1.475206,35.006473,4.219692],"center":{"lon":32.2774665,"lat":1.372243},"station_count":0,"dc_fast_count":0,"ultra_count":0,"has_station_data":false,"has_ev_stock_data":false,"ev_stock_year_min":null,"ev_stock_year_max":null},{"iso_a3":"UKR","name":"Ukraine","name_short":"Ukraine","continent":"Europe","region_un":"Europe","subregion":"Eastern Europe","bbox":[22.13284,45.213568,40.159543,52.368949],"center":{"lon":31.1461915,"lat":48.7912585},"station_count":0,"dc_fast_count":0,"ultra_count":0,"has_station_data":false,"has_ev_stock_data":false,"ev_stock_year_min":null,"ev_stock_year_max":null},{"iso_a3":"ARE","name":"United Arab Emirates","name_short":"United Arab Emirates","continent":"Asia","region_un":"Asia","subregion":"Western Asia","bbox":[51.569347,22.620946,56.383637,26.074792],"center":{"lon":53.976492,"lat":24.347869},"station_count":29,"dc_fast_count":3,"ultra_count":26,"has_station_data":true,"has_ev_stock_data":false,"ev_stock_year_min":null,"ev_stock_year_max":null},{"iso_a3":"GBR","name":"United Kingdom","name_short":"United Kingdom","continent":"Europe","region_un":"Europe","subregion":"Northern Europe","bbox":[-13.691314,49.909613,1.771169,60.847886],"center":{"lon":-5.9600725,"lat":55.3787495},"station_count":0,"dc_fast_count":0,"ultra_count":0,"has_station_data":false,"has_ev_stock_data":true,"ev_stock_year_min":2010,"ev_stock_year_max":2024},{"iso_a3":"USA","name":"United States","name_short":"United States of America","continent":"North America","region_un":"Americas","subregion":"Northern America","bbox":[-179.143503,18.906117,179.780935,71.412502],"center":{"lon":0.3187159999999949,"lat":45.1593095},"station_count":75370,"dc_fast_count":12116,"ultra_count":2938,"has_station_data":true,"has_ev_stock_data":true,"ev_stock_year_min":2011,"ev_stock_year_max":2024},{"iso_a3":"UMI","name":"United States Minor Outlying Islands","name_short":"U.S. Minor Outlying Is.","continent":"North America","region_un":"Oceania","subregion":"Seven seas (open ocean)","bbox":[-177.389597,-0.388767,166.652354,28.215318],"center":{"lon":-5.368621500000003,"lat":13.9132755},"station_count":0,"dc_fast_count":0,"ultra_count":0,"has_station_data":false,"has_ev_stock_data":false,"ev_stock_year_min":null,"ev_stock_year_max":null},{"iso_a3":"VIR","name":"United States Virgin Islands","name_short":"U.S. Virgin Is.","continent":"North America","region_un":"Americas","subregion":"Caribbean","bbox":[-65.041493,17.682766,-64.559397,18.386599],"center":{"lon":-64.800445,"lat":18.034682500000002},"station_count":0,"dc_fast_count":0,"ultra_count":0,"has_station_data":false,"has_ev_stock_data":false,"ev_stock_year_min":null,"ev_stock_year_max":null},{"iso_a3":"URY","name":"Uruguay","name_short":"Uruguay","continent":"South America","region_un":"Americas","subregion":"South America","bbox":[-58.439361,-34.973403,-53.110836,-30.09687],"center":{"lon":-55.7750985,"lat":-32.5351365},"station_count":0,"dc_fast_count":0,"ultra_count":0,"has_station_data":false,"has_ev_stock_data":false,"ev_stock_year_min":null,"ev_stock_year_max":null},{"iso_a3":"UZB","name":"Uzbekistan","name_short":"Uzbekistan","continent":"Asia","region_un":"Asia","subregion":"Central Asia","bbox":[55.975839,37.185147,73.148641,45.558719],"center":{"lon":64.56224,"lat":41.371933},"station_count":0,"dc_fast_count":0,"ultra_count":0,"has_station_data":false,"has_ev_stock_data":false,"ev_stock_year_min":null,"ev_stock_year_max":null},{"iso_a3":"VUT","name":"Vanuatu","name_short":"Vanuatu","continent":"Oceania","region_un":"Oceania","subregion":"Melanesia","bbox":[166.520518,-20.253106,169.898936,-13.064874],"center":{"lon":168.209727,"lat":-16.65899},"station_count":0,"dc_fast_count":0,"ultra_count":0,"has_station_data":false,"has_ev_stock_data":false,"ev_stock_year_min":null,"ev_stock_year_max":null},{"iso_a3":"VAT","name":"Vatican","name_short":"Vatican","continent":"Europe","region_un":"Europe","subregion":"Southern Europe","bbox":[12.452714,41.902752,12.454035,41.903915],"center":{"lon":12.453374499999999,"lat":41.9033335},"station_count":0,"dc_fast_count":0,"ultra_count":0,"has_station_data":false,"has_ev_stock_data":false,"ev_stock_year_min":null,"ev_stock_year_max":null},{"iso_a3":"VEN","name":"Venezuela","name_short":"Venezuela","continent":"South America","region_un":"Americas","subregion":"South America","bbox":[-73.391149,0.649315,-59.815595,15.702948],"center":{"lon":-66.60337200000001,"lat":8.1761315},"station_count":0,"dc_fast_count":0,"ultra_count":0,"has_station_data":false,"has_ev_stock_data":false,"ev_stock_year_min":null,"ev_stock_year_max":null},{"iso_a3":"VNM","name":"Vietnam","name_short":"Vietnam","continent":"Asia","region_un":"Asia","subregion":"South-Eastern Asia","bbox":[102.118655,8.565579,109.472423,23.366275],"center":{"lon":105.795539,"lat":15.965927},"station_count":0,"dc_fast_count":0,"ultra_count":0,"has_station_data":false,"has_ev_stock_data":false,"ev_stock_year_min":null,"ev_stock_year_max":null},{"iso_a3":"WLF","name":"Wallis and Futuna Islands","name_short":"Wallis and Futuna Is.","continent":"Oceania","region_un":"Oceania","subregion":"Polynesia","bbox":[-178.18574,-14.319431,-176.1256,-13.208917],"center":{"lon":-177.15567,"lat":-13.764174},"station_count":274,"dc_fast_count":11,"ultra_count":263,"has_station_data":true,"has_ev_stock_data":false,"ev_stock_year_min":null,"ev_stock_year_max":null},{"iso_a3":"ESH","name":"Western Sahara","name_short":"W. Sahara","continent":"Africa","region_un":"Africa","subregion":"Northern Africa","bbox":[-17.104644,20.766913,-8.680809,27.661465],"center":{"lon":-12.8927265,"lat":24.214188999999998},"station_count":0,"dc_fast_count":0,"ultra_count":0,"has_station_data":false,"has_ev_stock_data":false,"ev_stock_year_min":null,"ev_stock_year_max":null},{"iso_a3":"YEM","name":"Yemen","name_short":"Yemen","continent":"Asia","region_un":"Asia","subregion":"Western Asia","bbox":[42.545746,12.111444,54.540294,18.995638],"center":{"lon":48.54302,"lat":15.553541},"station_count":0,"dc_fast_count":0,"ultra_count":0,"has_station_data":false,"has_ev_stock_data":false,"ev_stock_year_min":null,"ev_stock_year_max":null},{"iso_a3":"ZMB","name":"Zambia","name_short":"Zambia","continent":"Africa","region_un":"Africa","subregion":"Eastern Africa","bbox":[21.979878,-18.069232,33.674203,-8.194124],"center":{"lon":27.8270405,"lat":-13.131678},"station_count":0,"dc_fast_count":0,"ultra_count":0,"has_station_data":false,"has_ev_stock_data":false,"ev_stock_year_min":null,"ev_stock_year_max":null},{"iso_a3":"ZWE","name":"Zimbabwe","name_short":"Zimbabwe","continent":"Africa","region_un":"Africa","subregion":"Eastern Africa","bbox":[25.21937,-22.39734,33.042768,-15.614808],"center":{"lon":29.131069000000004,"lat":-19.006073999999998},"station_count":0,"dc_fast_count":0,"ultra_count":0,"has_station_data":false,"has_ev_stock_data":false,"ev_stock_year_min":null,"ev_stock_year_max":null},{"iso_a3":"ALA","name":"Åland Islands","name_short":"Åland","continent":"Europe","region_un":"Europe","subregion":"Northern Europe","bbox":[19.513194,59.904486,21.09669,60.48078],"center":{"lon":20.304941999999997,"lat":60.192633},"station_count":45,"dc_fast_count":5,"ultra_count":40,"has_station_data":true,"has_ev_stock_data":false,"ev_stock_year_min":null,"ev_stock_year_max":null}]}